country,state,city,latitude,longitude
Australia,Australian Capital Territory,Acton,-35.27767000,149.11829000
Australia,Australian Capital Territory,Ainslie,-35.26255000,149.14370000
Australia,Australian Capital Territory,Amaroo,-35.16959000,149.12802000
Australia,Australian Capital Territory,Aranda,-35.25817000,149.08040000
Australia,Australian Capital Territory,Banks,-35.47194000,149.09965000
Australia,Australian Capital Territory,Barton,-35.30489000,149.14121000
Australia,Australian Capital Territory,Belconnen,-35.23798000,149.06627000
Australia,Australian Capital Territory,Bonner,-35.16225000,149.13855000
Australia,Australian Capital Territory,Bonython,-35.43326000,149.07822000
Australia,Australian Capital Territory,Braddon,-35.27078000,149.13569000
Australia,Australian Capital Territory,Bruce,-35.24405000,149.09083000
Australia,Australian Capital Territory,Calwell,-35.44042000,149.10707000
Australia,Australian Capital Territory,Campbell,-35.28907000,149.15382000
Australia,Australian Capital Territory,Canberra,-35.28346000,149.12807000
Australia,Australian Capital Territory,Casey,-35.16701000,149.09470000
Australia,Australian Capital Territory,Chapman,-35.35621000,149.03742000
Australia,Australian Capital Territory,Charnwood,-35.20019000,149.03412000
Australia,Australian Capital Territory,Chifley,-35.35340000,149.07684000
Australia,Australian Capital Territory,Chisholm,-35.41249000,149.12825000
Australia,Australian Capital Territory,City,-35.28125000,149.12927000
Australia,Australian Capital Territory,Conder,-35.45926000,149.10422000
Australia,Australian Capital Territory,Cook,-35.26014000,149.06566000
Australia,Australian Capital Territory,Coombs,-35.31634000,149.03941000
Australia,Australian Capital Territory,Crace,-35.20282000,149.10736000
Australia,Australian Capital Territory,Curtin,-35.32464000,149.07763000
Australia,Australian Capital Territory,Deakin,-35.31927000,149.10308000
Australia,Australian Capital Territory,Dickson,-35.25082000,149.13932000
Australia,Australian Capital Territory,Downer,-35.24457000,149.14468000
Australia,Australian Capital Territory,Duffy,-35.33459000,149.03188000
Australia,Australian Capital Territory,Dunlop,-35.19402000,149.01984000
Australia,Australian Capital Territory,Evatt,-35.21191000,149.06891000
Australia,Australian Capital Territory,Fadden,-35.40500000,149.11662000
Australia,Australian Capital Territory,Farrer,-35.37673000,149.10500000
Australia,Australian Capital Territory,Fisher,-35.36126000,149.05704000
Australia,Australian Capital Territory,Florey,-35.22588000,149.05000000
Australia,Australian Capital Territory,Flynn,-35.20593000,149.04389000
Australia,Australian Capital Territory,Forde,-35.16823000,149.14607000
Australia,Australian Capital Territory,Forrest,-35.31499000,149.12859000
Australia,Australian Capital Territory,Franklin,-35.19946000,149.14329000
Australia,Australian Capital Territory,Fraser,-35.19170000,149.04534000
Australia,Australian Capital Territory,Garran,-35.34206000,149.10846000
Australia,Australian Capital Territory,Gilmore,-35.41994000,149.13481000
Australia,Australian Capital Territory,Giralang,-35.21093000,149.09600000
Australia,Australian Capital Territory,Gordon,-35.45676000,149.08498000
Australia,Australian Capital Territory,Gowrie,-35.41187000,149.10903000
Australia,Australian Capital Territory,Greenway,-35.41829000,149.06658000
Australia,Australian Capital Territory,Griffith,-35.32533000,149.13714000
Australia,Australian Capital Territory,Gungahlin,-35.18674000,149.13619000
Australia,Australian Capital Territory,Hackett,-35.24948000,149.16352000
Australia,Australian Capital Territory,Harrison,-35.19906000,149.15631000
Australia,Australian Capital Territory,Hawker,-35.24707000,149.03666000
Australia,Australian Capital Territory,Higgins,-35.23242000,149.02720000
Australia,Australian Capital Territory,Holder,-35.33439000,149.04614000
Australia,Australian Capital Territory,Holt,-35.22441000,149.01188000
Australia,Australian Capital Territory,Hughes,-35.33269000,149.09491000
Australia,Australian Capital Territory,Isaacs,-35.36862000,149.11555000
Australia,Australian Capital Territory,Isabella Plains,-35.42829000,149.08795000
Australia,Australian Capital Territory,Kaleen,-35.21814000,149.10516000
Australia,Australian Capital Territory,Kambah,-35.38624000,149.05804000
Australia,Australian Capital Territory,Kingston,-35.31525000,149.14658000
Australia,Australian Capital Territory,Latham,-35.21652000,149.03144000
Australia,Australian Capital Territory,Lyneham,-35.23980000,149.13074000
Australia,Australian Capital Territory,Lyons,-35.34060000,149.07396000
Australia,Australian Capital Territory,Macarthur,-35.40885000,149.12696000
Australia,Australian Capital Territory,Macgregor,-35.20980000,149.01101000
Australia,Australian Capital Territory,Macquarie,-35.25126000,149.06363000
Australia,Australian Capital Territory,Mawson,-35.36340000,149.09863000
Australia,Australian Capital Territory,McKellar,-35.21752000,149.07704000
Australia,Australian Capital Territory,Melba,-35.21016000,149.05405000
Australia,Australian Capital Territory,Monash,-35.41577000,149.09063000
Australia,Australian Capital Territory,Narrabundah,-35.33570000,149.14924000
Australia,Australian Capital Territory,Ngunnawal,-35.17280000,149.11147000
Australia,Australian Capital Territory,Nicholls,-35.18733000,149.09648000
Australia,Australian Capital Territory,O'Connor,-35.25645000,149.11248000
Australia,Australian Capital Territory,Oxley,-35.40952000,149.07860000
Australia,Australian Capital Territory,Page,-35.23864000,149.04988000
Australia,Australian Capital Territory,Palmerston,-35.19447000,149.11940000
Australia,Australian Capital Territory,Pearce,-35.36222000,149.08338000
Australia,Australian Capital Territory,Phillip,-35.35035000,149.09151000
Australia,Australian Capital Territory,Red Hill,-35.32624000,149.11906000
Australia,Australian Capital Territory,Reid,-35.28578000,149.13905000
Australia,Australian Capital Territory,Richardson,-35.42787000,149.11377000
Australia,Australian Capital Territory,Rivett,-35.34709000,149.03790000
Australia,Australian Capital Territory,Scullin,-35.23462000,149.03900000
Australia,Australian Capital Territory,Spence,-35.19873000,149.06438000
Australia,Australian Capital Territory,Stirling,-35.34969000,149.04930000
Australia,Australian Capital Territory,Theodore,-35.44962000,149.11971000
Australia,Australian Capital Territory,Torrens,-35.37203000,149.08773000
Australia,Australian Capital Territory,Turner,-35.26881000,149.12465000
Australia,Australian Capital Territory,Wanniassa,-35.39783000,149.09086000
Australia,Australian Capital Territory,Waramanga,-35.35297000,149.06214000
Australia,Australian Capital Territory,Watson,-35.23815000,149.15271000
Australia,Australian Capital Territory,Weetangera,-35.25000000,149.05000000
Australia,Australian Capital Territory,Weston,-35.33582000,149.05929000
Australia,Australian Capital Territory,Wright,-35.32239000,149.03456000
Australia,Australian Capital Territory,Yarralumla,-35.29980000,149.10585000
Australia,New South Wales,Abbotsbury,-33.87010000,150.86119000
Australia,New South Wales,Abbotsford,-33.84889000,151.12801000
Australia,New South Wales,Abercrombie,-33.38867000,149.54580000
Australia,New South Wales,Aberdare,-32.84112000,151.38168000
Australia,New South Wales,Aberdeen,-32.16588000,150.89003000
Australia,New South Wales,Aberglasslyn,-32.70000000,151.53333000
Australia,New South Wales,Abermain,-32.80740000,151.42750000
Australia,New South Wales,Acacia Gardens,-33.73159000,150.91636000
Australia,New South Wales,Adamstown,-32.93824000,151.72541000
Australia,New South Wales,Adamstown Heights,-32.94906000,151.71009000
Australia,New South Wales,Airds,-34.08599000,150.83322000
Australia,New South Wales,Albion Park,-34.57132000,150.77568000
Australia,New South Wales,Albion Park Rail,-34.56634000,150.79177000
Australia,New South Wales,Albury,-36.07482000,146.92401000
Australia,New South Wales,Albury Municipality,-36.01494000,146.95684000
Australia,New South Wales,Aldavilla,-31.08180000,152.76790000
Australia,New South Wales,Alexandria,-33.89989000,151.19951000
Australia,New South Wales,Alfords Point,-33.98744000,151.02526000
Australia,New South Wales,Allambie Heights,-33.76655000,151.24981000
Australia,New South Wales,Allawah,-33.97257000,151.11440000
Australia,New South Wales,Alstonville,-28.84186000,153.44022000
Australia,New South Wales,Ambarvale,-34.08942000,150.79656000
Australia,New South Wales,Anna Bay,-32.78135000,152.08586000
Australia,New South Wales,Annandale,-33.88333000,151.16667000
Australia,New South Wales,Annangrove,-33.65758000,150.94755000
Australia,New South Wales,Appin,-34.20347000,150.78644000
Australia,New South Wales,Arcadia,-33.61667000,151.03333000
Australia,New South Wales,Arcadia vale,-33.06052000,151.58408000
Australia,New South Wales,Argenton,-32.93505000,151.63064000
Australia,New South Wales,Armidale,-30.50123000,151.66553000
Australia,New South Wales,Arncliffe,-33.93627000,151.14819000
Australia,New South Wales,Artarmon,-33.81667000,151.18333000
Australia,New South Wales,Ashbury,-33.89785000,151.11960000
Australia,New South Wales,Ashcroft,-33.91598000,150.89985000
Australia,New South Wales,Ashfield,-33.88834000,151.12274000
Australia,New South Wales,Ashmont,-35.12491000,147.33172000
Australia,New South Wales,Ashtonfield,-32.77331000,151.60583000
Australia,New South Wales,Asquith,-33.68705000,151.11630000
Australia,New South Wales,Auburn,-33.85000000,151.03333000
Australia,New South Wales,Austinmer,-34.30516000,150.93335000
Australia,New South Wales,Austral,-33.92745000,150.80811000
Australia,New South Wales,Avoca Beach,-33.46818000,151.43390000
Australia,New South Wales,Avondale,-34.51750000,150.75010000
Australia,New South Wales,Balgowlah,-33.79494000,151.25720000
Australia,New South Wales,Balgowlah Heights,-33.80661000,151.26243000
Australia,New South Wales,Balgownie,-34.39505000,150.88051000
Australia,New South Wales,Ballina,-28.85273000,153.48568000
Australia,New South Wales,Balmain,-33.85481000,151.18330000
Australia,New South Wales,Balmain East,-33.85710000,151.19282000
Australia,New South Wales,Balranald,-34.67839000,143.56384000
Australia,New South Wales,Bangalow,-28.68634000,153.52153000
Australia,New South Wales,Bangor,-34.01667000,151.03333000
Australia,New South Wales,Banksia,-33.94601000,151.14304000
Australia,New South Wales,Banksmeadow,-33.95603010,151.19736200
Australia,New South Wales,Bankstown,-33.91667000,151.03333000
Australia,New South Wales,Banora Point,-28.21298000,153.53634000
Australia,New South Wales,Bar Beach,-32.94128000,151.76544000
Australia,New South Wales,Barden Ridge,-34.03413000,151.01194000
Australia,New South Wales,Bardia,-33.97789000,150.86306000
Australia,New South Wales,Bardwell Park,-33.93534000,151.12571000
Australia,New South Wales,Bardwell Valley,-33.93344000,151.13668000
Australia,New South Wales,Bargo,-34.29301000,150.57806000
Australia,New South Wales,Barham,-35.62647000,144.12895000
Australia,New South Wales,Barnsley,-32.93333000,151.58333000
Australia,New South Wales,Barooga,-35.90602000,145.69585000
Australia,New South Wales,Barraba,-30.38547000,150.60901000
Australia,New South Wales,Barrack Heights,-34.56464000,150.85692000
Australia,New South Wales,Basin View,-35.08833000,150.55534000
Australia,New South Wales,Bass Hill,-33.89863000,150.99541000
Australia,New South Wales,Bateau Bay,-33.38334000,151.46671000
Australia,New South Wales,Batehaven,-35.73757000,150.19836000
Australia,New South Wales,Batemans Bay,-35.70658000,150.17541000
Australia,New South Wales,Bathurst,-33.41665000,149.58060000
Australia,New South Wales,Bathurst city centre,-33.41816000,149.57621000
Australia,New South Wales,Bathurst Regional,-33.47310000,149.51956000
Australia,New South Wales,Batlow,-35.51987000,148.14727000
Australia,New South Wales,Baulkham Hills,-33.75881000,150.99292000
Australia,New South Wales,Bay View,-33.65982000,151.29878000
Australia,New South Wales,Beacon Hill,-33.75280000,151.25857000
Australia,New South Wales,Beaumont Hills,-33.69993000,150.94110000
Australia,New South Wales,Beecroft,-33.74954000,151.06480000
Australia,New South Wales,Bega,-36.67392000,149.84178000
Australia,New South Wales,Bega Valley,-36.81646000,149.72060000
Australia,New South Wales,Belfield,-33.90354000,151.08467000
Australia,New South Wales,Bella Vista,-33.74127000,150.95456000
Australia,New South Wales,Bellambi,-34.36667000,150.91667000
Australia,New South Wales,Bellbird,-32.85992000,151.31873000
Australia,New South Wales,Bellevue Hill,-33.87899000,151.25101000
Australia,New South Wales,Bellingen,-30.37394000,152.72492000
Australia,New South Wales,Belmont,-33.02740000,151.66010000
Australia,New South Wales,Belmont North,-33.02081000,151.66849000
Australia,New South Wales,Belmont South,-33.04934000,151.65695000
Australia,New South Wales,Belmore,-33.91901000,151.08935000
Australia,New South Wales,Belrose,-33.73954000,151.21033000
Australia,New South Wales,Bensville,-33.49757000,151.38084000
Australia,New South Wales,Berala,-33.87197000,151.03386000
Australia,New South Wales,Beresfield,-32.80000000,151.65000000
Australia,New South Wales,Berkeley,-34.48333000,150.85000000
Australia,New South Wales,Berkeley Vale,-33.35000000,151.43333000
Australia,New South Wales,Berkshire Park,-33.67283000,150.77523000
Australia,New South Wales,Bermagui,-36.41900000,150.06355000
Australia,New South Wales,Berowra,-33.62078000,151.15091000
Australia,New South Wales,Berowra Heights,-33.61211000,151.13754000
Australia,New South Wales,Berridale,-36.36673000,148.82772000
Australia,New South Wales,Berrigan,-35.75192000,145.66984000
Australia,New South Wales,Berry,-34.77507000,150.69436000
Australia,New South Wales,Beverley Park,-33.97707000,151.13437000
Australia,New South Wales,Beverly Hills,-33.94799000,151.07979000
Australia,New South Wales,Bexley,-33.95000000,151.11667000
Australia,New South Wales,Bexley North,-33.93848000,151.11385000
Australia,New South Wales,Bidwill,-33.73013000,150.82219000
Australia,New South Wales,Bilambil Heights,-28.21610000,153.48415000
Australia,New South Wales,Bilgola Plateau,-33.64781000,151.31212000
Australia,New South Wales,Bingara,-29.86931000,150.57204000
Australia,New South Wales,Birchgrove,-33.85164000,151.18243000
Australia,New South Wales,Birmingham Gardens,-32.89368000,151.69009000
Australia,New South Wales,Birrong,-33.89255000,151.02075000
Australia,New South Wales,Blackalls Park,-32.99893000,151.58018000
Australia,New South Wales,Blackbutt,-34.57164000,150.83804000
Australia,New South Wales,Blackett,-33.73792000,150.81812000
Australia,New South Wales,Blackheath,-33.63567000,150.28318000
Australia,New South Wales,Blacksmiths,-33.07167000,151.65533000
Australia,New South Wales,Blacktown,-33.74016000,150.86253000
Australia,New South Wales,Blackwall,-33.50252000,151.32786000
Australia,New South Wales,Blair Athol,-30.65000000,150.20000000
Australia,New South Wales,Blakehurst,-33.99152000,151.10876000
Australia,New South Wales,Bland,-33.91904000,146.92718000
Australia,New South Wales,Blaxland,-33.75000000,150.60000000
Australia,New South Wales,Blayney,-33.61653000,149.13046000
Australia,New South Wales,Bligh Park,-33.63985000,150.80248000
Australia,New South Wales,Blue Bay,-33.35413000,151.50024000
Australia,New South Wales,Blue Haven,-33.21106000,151.50351000
Australia,New South Wales,Blue Mountains Municipality,-33.63203000,150.41293000
Australia,New South Wales,Boambee,-30.33981000,153.06783000
Australia,New South Wales,Boambee East,-30.34662000,153.07320000
Australia,New South Wales,Bogan,-31.57012000,146.90617000
Australia,New South Wales,Bogangar,-28.32944000,153.56860000
Australia,New South Wales,Boggabri,-30.70953000,150.04121000
Australia,New South Wales,Bolton Point,-33.00177000,151.61013000
Australia,New South Wales,Bolwarra Heights,-32.70100000,151.58541000
Australia,New South Wales,Bomaderry,-34.84967000,150.61093000
Australia,New South Wales,Bombala,-36.91212000,149.23669000
Australia,New South Wales,Bondi,-33.89429000,151.26444000
Australia,New South Wales,Bondi Beach,-33.89079000,151.27852000
Australia,New South Wales,Bondi Junction,-33.89275000,151.24723000
Australia,New South Wales,Bonnells Bay,-33.10973000,151.53226000
Australia,New South Wales,Bonnet Bay,-34.01023000,151.05253000
Australia,New South Wales,Bonny Hills,-31.59061000,152.83908000
Australia,New South Wales,Bonnyrigg,-33.89357000,150.88908000
Australia,New South Wales,Bonnyrigg Heights,-33.89117000,150.86994000
Australia,New South Wales,Bonville,-30.38284000,153.05959000
Australia,New South Wales,Booker Bay,-33.51250000,151.34590000
Australia,New South Wales,Booragul,-32.97486000,151.60978000
Australia,New South Wales,Boorowa,-34.43661000,148.71634000
Australia,New South Wales,Bossley Park,-33.86184000,150.88410000
Australia,New South Wales,Botany,-33.94599000,151.19591000
Australia,New South Wales,Botany Bay,-33.94660000,151.19874000
Australia,New South Wales,Bourke,-29.99584000,145.36160000
Australia,New South Wales,Bourkelands,-35.15593000,147.34704000
Australia,New South Wales,Bow Bowing,-34.01655000,150.84030000
Australia,New South Wales,Bowen Mountain,-33.57192000,150.62563000
Australia,New South Wales,Bowenfels,-33.48336000,150.13444000
Australia,New South Wales,Bowral,-34.47750000,150.42040000
Australia,New South Wales,Bowraville,-30.64997000,152.85146000
Australia,New South Wales,Bradbury,-34.08540000,150.81541000
Australia,New South Wales,Braidwood,-35.44148000,149.79980000
Australia,New South Wales,Branxton,-32.65547000,151.35113000
Australia,New South Wales,Breakfast Point,-33.84286000,151.11072000
Australia,New South Wales,Brewarrina,-29.95055000,147.14760000
Australia,New South Wales,Brighton-Le-Sands,-33.96009000,151.15110000
Australia,New South Wales,Bringelly,-33.93333000,150.73333000
Australia,New South Wales,Broadmeadow,-32.92371000,151.72849000
Australia,New South Wales,Broken Hill,-31.96520000,141.45120000
Australia,New South Wales,Broken Hill Municipality,-31.95000000,141.43333000
Australia,New South Wales,Bronte,-33.90198000,151.26556000
Australia,New South Wales,Brookvale,-33.76108000,151.27446000
Australia,New South Wales,Broulee,-35.85469000,150.17392000
Australia,New South Wales,Brunswick Heads,-28.54003000,153.54573000
Australia,New South Wales,Budgewoi,-33.23390000,151.55412000
Australia,New South Wales,Buff Point,-33.22285000,151.53125000
Australia,New South Wales,Bulahdelah,-32.40698000,152.21185000
Australia,New South Wales,Bullaburra,-33.72922000,150.41766000
Australia,New South Wales,Bulli,-34.33834000,150.91347000
Australia,New South Wales,Bundanoon,-34.65658000,150.29623000
Australia,New South Wales,Bundeena,-34.08384000,151.15016000
Australia,New South Wales,Bungarribee,-33.77704000,150.86799000
Australia,New South Wales,Bungendore,-35.25382000,149.44007000
Australia,New South Wales,Buronga,-34.17070000,142.17350000
Australia,New South Wales,Burradoo,-34.50320000,150.40900000
Australia,New South Wales,Burraneer,-34.05625000,151.13810000
Australia,New South Wales,Burrill Lake,-35.38716000,150.44952000
Australia,New South Wales,Burwood,-33.88536000,151.10481000
Australia,New South Wales,Busby,-33.91124000,150.88068000
Australia,New South Wales,Buttaba,-33.05327000,151.57866000
Australia,New South Wales,Buxton,-34.26017000,150.53288000
Australia,New South Wales,Byron Bay,-28.64989000,153.61246000
Australia,New South Wales,Byron Shire,-28.61667000,153.51667000
Australia,New South Wales,Bywong,-35.16476000,149.32892000
Australia,New South Wales,Cabarita,-33.84721000,151.11638000
Australia,New South Wales,Cabonne,-33.11076000,148.82694000
Australia,New South Wales,Cabramatta,-33.89743000,150.93446000
Australia,New South Wales,Cabramatta West,-33.89303000,150.91190000
Australia,New South Wales,Caddens,-33.77415000,150.74126000
Australia,New South Wales,Calala,-31.17356000,150.98059000
Australia,New South Wales,Callaghan,-32.89205000,151.70531000
Australia,New South Wales,Callala Bay,-34.99668000,150.72281000
Australia,New South Wales,Cambewarra Village,-34.82335000,150.55940000
Australia,New South Wales,Cambridge Gardens,-33.73801000,150.72075000
Australia,New South Wales,Cambridge Park,-33.74784000,150.72208000
Australia,New South Wales,Camden,-34.01610000,150.72521000
Australia,New South Wales,Camden Haven,-31.64484000,152.79462000
Australia,New South Wales,Camden South,-34.08312000,150.69491000
Australia,New South Wales,Cameron Park,-32.90701000,151.60528000
Australia,New South Wales,Cammeray,-33.82132000,151.21609000
Australia,New South Wales,Campbelltown,-34.06667000,150.81667000
Australia,New South Wales,Campbelltown Municipality,-34.08333000,150.83333000
Australia,New South Wales,Camperdown,-33.88965000,151.17642000
Australia,New South Wales,Campsie,-33.91250000,151.10279000
Australia,New South Wales,Canada Bay,-33.86590000,151.11591000
Australia,New South Wales,Canley Heights,-33.88262000,150.92408000
Australia,New South Wales,Canley Vale,-33.88657000,150.94802000
Australia,New South Wales,Canowindra,-33.56247000,148.66434000
Australia,New South Wales,Canterbury,-33.91192000,151.11862000
Australia,New South Wales,Canton Beach,-33.27443000,151.54614000
Australia,New South Wales,Cardiff,-32.94201000,151.65440000
Australia,New South Wales,Cardiff Heights,-32.93626000,151.67227000
Australia,New South Wales,Cardiff South,-32.95470000,151.66446000
Australia,New South Wales,Caringbah,-34.03534000,151.12468000
Australia,New South Wales,Caringbah South,-34.05662000,151.12149000
Australia,New South Wales,Carlingford,-33.78269000,151.04888000
Australia,New South Wales,Carlton,-33.97107000,151.12136000
Australia,New South Wales,Carnes Hill,-33.93846000,150.84881000
Australia,New South Wales,Carramar,-33.88382000,150.96153000
Australia,New South Wales,Carrathool,-33.62571000,145.42523000
Australia,New South Wales,Carrington,-32.91501000,151.76436000
Australia,New South Wales,Carss Park,-33.98667000,151.11734000
Australia,New South Wales,Cartwright,-33.92498000,150.88951000
Australia,New South Wales,Carwoola,-35.37836000,149.32150000
Australia,New South Wales,Casino,-28.85819000,153.04748000
Australia,New South Wales,Castle Cove,-33.78655000,151.20925000
Australia,New South Wales,Castle Hill,-33.73333000,151.00000000
Australia,New South Wales,Castlecrag,-33.79987000,151.22310000
Australia,New South Wales,Castlereagh,-33.68981000,150.67887000
Australia,New South Wales,Casuarina,-28.30042000,153.57064000
Australia,New South Wales,Casula,-33.95222000,150.89949000
Australia,New South Wales,Catalina,-35.73000000,150.18494000
Australia,New South Wales,Catherine Field,-34.00439000,150.77253000
Australia,New South Wales,Caves Beach,-33.10637000,151.64402000
Australia,New South Wales,Cecil Hills,-33.88917000,150.85137000
Australia,New South Wales,Centennial Park,-33.89794000,151.23364000
Australia,New South Wales,Central Darling,-31.77155000,143.62569000
Australia,New South Wales,Cessnock,-32.89391000,151.21234000
Australia,New South Wales,Chain Valley Bay,-33.17241000,151.57143000
Australia,New South Wales,Charlestown,-32.96828000,151.69318000
Australia,New South Wales,Charmhaven,-33.22671000,151.50284000
Australia,New South Wales,Chatswood,-33.80000000,151.18333000
Australia,New South Wales,Chatswood West,-33.79402000,151.16492000
Australia,New South Wales,Cherrybrook,-33.72197000,151.04607000
Australia,New South Wales,Chester Hill,-33.87896000,150.99945000
Australia,New South Wales,Chifley,-33.96696000,151.24221000
Australia,New South Wales,Chinderah,-28.25456000,153.53712000
Australia,New South Wales,Chippendale,-33.88673000,151.19745000
Australia,New South Wales,Chipping Norton,-33.91801000,150.95927000
Australia,New South Wales,Chiswick,-33.84996000,151.13846000
Australia,New South Wales,Chittaway Bay,-33.32769000,151.42971000
Australia,New South Wales,City of Sydney,-33.86778000,151.20844000
Australia,New South Wales,Claremont Meadows,-33.77587000,150.75193000
Australia,New South Wales,Clarence Town,-32.58395000,151.77757000
Australia,New South Wales,Clarence Valley,-29.69444000,152.78156000
Australia,New South Wales,Claymore,-34.04649000,150.81114000
Australia,New South Wales,Clemton Park,-33.92616000,151.10406000
Australia,New South Wales,Clontarf,-33.80554000,151.25367000
Australia,New South Wales,Clovelly,-33.91214000,151.25882000
Australia,New South Wales,Coal Point,-33.04225000,151.61159000
Australia,New South Wales,Cobar,-31.96613000,145.36063000
Australia,New South Wales,Cobbitty,-34.01592000,150.67854000
Australia,New South Wales,Coffs Harbour,-30.17294000,153.03262000
Australia,New South Wales,Coleambally,-34.80388000,145.88036000
Australia,New South Wales,Colebee,-33.72769000,150.84743000
Australia,New South Wales,Coledale,-34.29105000,150.94470000
Australia,New South Wales,Collaroy,-33.73205000,151.30118000
Australia,New South Wales,Collaroy Plateau,-33.72884000,151.29075000
Australia,New South Wales,Colo Vale,-34.40095000,150.48573000
Australia,New South Wales,Colyton,-33.78283000,150.79679000
Australia,New South Wales,Como,-33.99941000,151.06389000
Australia,New South Wales,Concord,-33.84722000,151.10381000
Australia,New South Wales,Concord West,-33.84809000,151.08609000
Australia,New South Wales,Condell Park,-33.92458000,151.01093000
Australia,New South Wales,Condobolin,-33.08877000,147.15139000
Australia,New South Wales,Coniston,-34.45000000,150.88333000
Australia,New South Wales,Connells Point,-33.98827000,151.09094000
Australia,New South Wales,Constitution Hill,-33.79259000,150.97627000
Australia,New South Wales,Coogee,-33.92050000,151.25522000
Australia,New South Wales,Cooks Hill,-32.93244000,151.77114000
Australia,New South Wales,Coolah,-31.82787000,149.71564000
Australia,New South Wales,Coolamon,-34.60046000,147.13707000
Australia,New South Wales,Cooma,-36.23517000,149.12408000
Australia,New South Wales,Coonabarabran,-31.27734000,149.27904000
Australia,New South Wales,Coonamble,-30.86714000,148.29053000
Australia,New South Wales,Cooranbong,-33.07622000,151.45409000
Australia,New South Wales,Cootamundra,-34.64095000,148.02838000
Australia,New South Wales,Copacabana,-33.48692000,151.43587000
Australia,New South Wales,Coraki,-28.99260000,153.28374000
Australia,New South Wales,Cordeaux Heights,-34.44043000,150.83748000
Australia,New South Wales,Corindi Beach,-30.01668000,153.18555000
Australia,New South Wales,Corlette,-32.72014000,152.10846000
Australia,New South Wales,Corowa,-35.99704000,146.38552000
Australia,New South Wales,Corrimal,-34.37864000,150.90356000
Australia,New South Wales,Coutts Crossing,-29.82619000,152.89156000
Australia,New South Wales,Cowra,-33.81138000,148.78346000
Australia,New South Wales,Cranebrook,-33.70610000,150.70940000
Australia,New South Wales,Cremorne,-33.82679000,151.22633000
Australia,New South Wales,Cremorne Point,-33.84008000,151.22698000
Australia,New South Wales,Crescent Head,-31.18870000,152.97301000
Australia,New South Wales,Crestwood,-35.34844000,149.21758000
Australia,New South Wales,Cringila,-34.47131000,150.86755000
Australia,New South Wales,Cromer,-33.73120000,151.26788000
Australia,New South Wales,Cronulla,-34.06251000,151.14961000
Australia,New South Wales,Crookwell,-34.45925000,149.47137000
Australia,New South Wales,Crows Nest,-33.82494000,151.20398000
Australia,New South Wales,Croydon,-33.88333000,151.11667000
Australia,New South Wales,Culburra Beach,-34.92788000,150.75766000
Australia,New South Wales,Culcairn,-35.66669000,147.03845000
Australia,New South Wales,Cumbalum,-28.82250000,153.52840000
Australia,New South Wales,Cundletown,-31.89410000,152.52141000
Australia,New South Wales,Curl Curl,-33.76886000,151.28888000
Australia,New South Wales,Currans Hill,-34.04311000,150.77301000
Australia,New South Wales,Daceyville,-33.92879000,151.22577000
Australia,New South Wales,Dalmeny,-36.16608000,150.12912000
Australia,New South Wales,Dapto,-34.50386000,150.79416000
Australia,New South Wales,Darling Point,-33.87064000,151.23895000
Australia,New South Wales,Darlinghurst,-33.87939000,151.21925000
Australia,New South Wales,Darlington,-33.89103000,151.19548000
Australia,New South Wales,Darlington Point,-34.56942000,145.99870000
Australia,New South Wales,Davidson,-33.74297000,151.20080000
Australia,New South Wales,Davistown,-33.48559000,151.36151000
Australia,New South Wales,Dean Park,-33.73539000,150.85958000
Australia,New South Wales,Dee Why,-33.75110000,151.28886000
Australia,New South Wales,Denham Court,-33.98307000,150.84606000
Australia,New South Wales,Deniliquin,-35.53245000,144.95364000
Australia,New South Wales,Denistone,-33.79835000,151.09051000
Australia,New South Wales,Denistone East,-33.79600000,151.09740000
Australia,New South Wales,Denman,-32.38788000,150.68935000
Australia,New South Wales,Dharruk,-33.74814000,150.81561000
Australia,New South Wales,Dolls Point,-33.99341000,151.14474000
Australia,New South Wales,Doonside,-33.76667000,150.86667000
Australia,New South Wales,Dora Creek,-33.08139000,151.49677000
Australia,New South Wales,Dorrigo,-30.34112000,152.71394000
Australia,New South Wales,Double Bay,-33.87782000,151.24354000
Australia,New South Wales,Douglas Park,-34.18496000,150.71449000
Australia,New South Wales,Dover Heights,-33.87083000,151.27917000
Australia,New South Wales,Drummoyne,-33.85237000,151.15491000
Australia,New South Wales,Dubbo,-32.24295000,148.60484000
Australia,New South Wales,Dudley,-32.99373000,151.72197000
Australia,New South Wales,Dulwich Hill,-33.90410000,151.13945000
Australia,New South Wales,Dundas Valley,-33.78826000,151.05261000
Australia,New South Wales,Dunedoo,-32.01634000,149.38710000
Australia,New South Wales,Dungog,-32.34619000,151.61122000
Australia,New South Wales,Dural,-33.68333000,151.01667000
Australia,New South Wales,Eagle Vale,-34.03747000,150.81360000
Australia,New South Wales,Earlwood,-33.92090000,151.12506000
Australia,New South Wales,East Albury,-36.08144000,146.92991000
Australia,New South Wales,East Ballina,-28.85709000,153.58736000
Australia,New South Wales,East Branxton,-32.65372000,151.36559000
Australia,New South Wales,East Corrimal,-34.37606000,150.91078000
Australia,New South Wales,East Gosford,-33.43874000,151.35338000
Australia,New South Wales,East Hills,-33.96099000,150.98822000
Australia,New South Wales,East Jindabyne,-36.39579000,148.65137000
Australia,New South Wales,East Kempsey,-31.08242000,152.85253000
Australia,New South Wales,East Killara,-33.75535000,151.18154000
Australia,New South Wales,East Kurrajong,-33.50550000,150.79427000
Australia,New South Wales,East Lindfield,-33.76664000,151.18685000
Australia,New South Wales,East Lismore,-28.82591000,153.28880000
Australia,New South Wales,East Maitland,-32.75000000,151.58333000
Australia,New South Wales,East Ryde,-33.81031000,151.13153000
Australia,New South Wales,East Tamworth,-31.08548000,150.93721000
Australia,New South Wales,Eastlakes,-33.93196000,151.21214000
Australia,New South Wales,Eastwood,-33.79176000,151.08057000
Australia,New South Wales,Eden,-37.06675000,149.90029000
Australia,New South Wales,Edensor Park,-33.87971000,150.87778000
Australia,New South Wales,Edgecliff,-33.87952000,151.23677000
Australia,New South Wales,Edgeworth,-32.92508000,151.61612000
Australia,New South Wales,Edmondson Park,-33.95695000,150.86134000
Australia,New South Wales,Eglinton,-33.37731000,149.54654000
Australia,New South Wales,Elanora Heights,-33.70159000,151.27965000
Australia,New South Wales,Elderslie,-34.05519000,150.71367000
Australia,New South Wales,Eleebana,-32.98960000,151.63642000
Australia,New South Wales,Elermore Vale,-32.91621000,151.67665000
Australia,New South Wales,Elizabeth Bay,-33.87181000,151.22706000
Australia,New South Wales,Elizabeth Hills,-33.89863000,150.84761000
Australia,New South Wales,Ellalong,-32.91507000,151.31161000
Australia,New South Wales,Emerald Beach,-30.16388000,153.18190000
Australia,New South Wales,Emerton,-33.74411000,150.80644000
Australia,New South Wales,Empire Bay,-33.49385000,151.36290000
Australia,New South Wales,Emu Heights,-33.73453000,150.64874000
Australia,New South Wales,Emu Plains,-33.75000000,150.66667000
Australia,New South Wales,Engadine,-34.06564000,151.01266000
Australia,New South Wales,Enmore,-33.90050000,151.17314000
Australia,New South Wales,Epping,-33.77271000,151.08184000
Australia,New South Wales,Erina,-33.43218000,151.38972000
Australia,New South Wales,Ermington,-33.81483000,151.05467000
Australia,New South Wales,Erskine Park,-33.81301000,150.79773000
Australia,New South Wales,Erskineville,-33.90254000,151.18579000
Australia,New South Wales,Eschol Park,-34.02982000,150.80957000
Australia,New South Wales,Estella,-35.07254000,147.35748000
Australia,New South Wales,Ettalong,-33.51301000,151.33830000
Australia,New South Wales,Ettalong Beach,-33.51058000,151.33044000
Australia,New South Wales,Eulomogo,-32.26667000,148.68333000
Australia,New South Wales,Eurobodalla,-35.93307000,149.92780000
Australia,New South Wales,Evans Head,-29.11777000,153.43072000
Australia,New South Wales,Fairfield,-33.86742000,150.90105000
Australia,New South Wales,Fairfield East,-33.86938000,150.97129000
Australia,New South Wales,Fairfield Heights,-33.86445000,150.93884000
Australia,New South Wales,Fairfield West,-33.86670000,150.91700000
Australia,New South Wales,Fairlight,-33.79575000,151.27346000
Australia,New South Wales,Fairy Meadow,-34.39303000,150.89275000
Australia,New South Wales,Farmborough Heights,-34.45499000,150.81308000
Australia,New South Wales,Faulconbridge,-33.70000000,150.53333000
Australia,New South Wales,Fennell Bay,-32.99220000,151.60008000
Australia,New South Wales,Fern Bay,-32.86428000,151.81307000
Australia,New South Wales,Fern Hill,-34.38294000,150.88567000
Australia,New South Wales,Figtree,-34.43556000,150.85833000
Australia,New South Wales,Fingal Bay,-32.74969000,152.17104000
Australia,New South Wales,Finley,-35.65498000,145.57106000
Australia,New South Wales,Five Dock,-33.86740000,151.12905000
Australia,New South Wales,Fletcher,-32.87232000,151.64008000
Australia,New South Wales,Flinders,-34.58333000,150.85516000
Australia,New South Wales,Floraville,-33.01116000,151.66480000
Australia,New South Wales,Forbes,-33.37898000,147.86448000
Australia,New South Wales,Forest Hill,-35.14810000,147.46707000
Australia,New South Wales,Forest Lodge,-33.88137000,151.18000000
Australia,New South Wales,Forestville,-33.76667000,151.20833000
Australia,New South Wales,Forresters Beach,-33.40700000,151.47600000
Australia,New South Wales,Forster,-32.18136000,152.51715000
Australia,New South Wales,Frederickton,-31.03749000,152.87530000
Australia,New South Wales,Freemans Reach,-33.55794000,150.79553000
Australia,New South Wales,Frenchs Forest,-33.74821000,151.22322000
Australia,New South Wales,Freshwater,-33.77867000,151.28569000
Australia,New South Wales,Galston,-33.65297000,151.04713000
Australia,New South Wales,Garden Suburb,-32.94368000,151.68085000
Australia,New South Wales,Gateshead,-32.98208000,151.69188000
Australia,New South Wales,Georges Hall,-33.90879000,150.98852000
Australia,New South Wales,Georgetown,-32.90810000,151.73119000
Australia,New South Wales,Gerringong,-34.74702000,150.82809000
Australia,New South Wales,Gilgandra,-31.63297000,148.70354000
Australia,New South Wales,Gillieston Heights,-32.76164000,151.52863000
Australia,New South Wales,Girards Hill,-28.81693000,153.27786000
Australia,New South Wales,Girraween,-33.79900000,150.94300000
Australia,New South Wales,Gladesville,-33.83333000,151.13333000
Australia,New South Wales,Glebe,-33.87884000,151.18426000
Australia,New South Wales,Glen Alpine,-34.08600000,150.78512000
Australia,New South Wales,Glen Innes,-29.73485000,151.73850000
Australia,New South Wales,Glen Innes Severn,-29.63116000,151.93957000
Australia,New South Wales,Glenbrook,-33.76667000,150.61667000
Australia,New South Wales,Glendale,-32.93194000,151.64103000
Australia,New South Wales,Glendenning,-33.74830000,150.85411000
Australia,New South Wales,Glenfield,-33.96667000,150.90000000
Australia,New South Wales,Glenfield Park,-35.13725000,147.33285000
Australia,New South Wales,Glenhaven,-33.70000000,151.00000000
Australia,New South Wales,Glenmore Park,-33.79068000,150.66930000
Australia,New South Wales,Glenning Valley,-33.35369000,151.42623000
Australia,New South Wales,Glenorie,-33.60177000,151.00886000
Australia,New South Wales,Glenroy,-36.05021000,146.91058000
Australia,New South Wales,Glenwood,-33.73333000,150.93284000
Australia,New South Wales,Glossodia,-33.53618000,150.77390000
Australia,New South Wales,Gloucester,-32.00770000,151.96330000
Australia,New South Wales,Gol Gol,-34.17388000,142.22187000
Australia,New South Wales,Googong,-35.43873000,149.21310000
Australia,New South Wales,Goonellabah,-28.81667000,153.31667000
Australia,New South Wales,Gordon,-33.75535000,151.15115000
Australia,New South Wales,Gorokan,-33.25764000,151.50970000
Australia,New South Wales,Gosford,-33.42440000,151.34399000
Australia,New South Wales,Goulburn,-34.75155000,149.72086000
Australia,New South Wales,Goulburn Mulwaree,-34.90250000,149.90200000
Australia,New South Wales,Grafton,-29.68104000,152.93394000
Australia,New South Wales,Granville,-33.84060000,151.00748000
Australia,New South Wales,Grasmere,-34.05392000,150.66602000
Australia,New South Wales,Grays Point,-34.05873000,151.08604000
Australia,New South Wales,Greater Hume Shire,-35.75837000,147.19731000
Australia,New South Wales,Green Valley,-33.90292000,150.86713000
Australia,New South Wales,Greenacre,-33.90034000,151.05563000
Australia,New South Wales,Greenfield Park,-33.87461000,150.89189000
Australia,New South Wales,Greenwell Point,-34.90751000,150.73113000
Australia,New South Wales,Greenwich,-33.83954000,151.18300000
Australia,New South Wales,Gregory Hills,-34.02673000,150.77070000
Australia,New South Wales,Grenfell,-33.89549000,148.16438000
Australia,New South Wales,Greta,-32.67783000,151.38924000
Australia,New South Wales,Greystanes,-33.82346000,150.94607000
Australia,New South Wales,Griffith,-34.33448000,146.02295000
Australia,New South Wales,Grose Vale,-33.58331000,150.67440000
Australia,New South Wales,Guildford West,-33.84939000,150.96475000
Australia,New South Wales,Gulgong,-32.36253000,149.53201000
Australia,New South Wales,Gulmarrad,-29.48700000,153.23341000
Australia,New South Wales,Gundagai,-35.02623000,148.13457000
Australia,New South Wales,Gundaroo,-35.03333000,149.25000000
Australia,New South Wales,Gunnedah,-31.02404000,150.11548000
Australia,New South Wales,Guyra,-30.21680000,151.66785000
Australia,New South Wales,Gwandalan,-33.13538000,151.58285000
Australia,New South Wales,Gwydir,-29.49806000,150.53813000
Australia,New South Wales,Gwynneville,-34.41667000,150.88750000
Australia,New South Wales,Gymea,-34.03637000,151.08528000
Australia,New South Wales,Gymea Bay,-34.05209000,151.08795000
Australia,New South Wales,Haberfield,-33.88296000,151.14389000
Australia,New South Wales,Halekulani,-33.21914000,151.55251000
Australia,New South Wales,Hamilton,-32.92207000,151.74711000
Australia,New South Wales,Hamlyn Terrace,-33.25125000,151.47627000
Australia,New South Wales,Hammondville,-33.94827000,150.95211000
Australia,New South Wales,Hanwood,-34.33095000,146.04137000
Australia,New South Wales,Harrington,-31.88306000,152.65924000
Australia,New South Wales,Harrington Park,-34.02405000,150.73501000
Australia,New South Wales,Harris Park,-33.82285000,151.00781000
Australia,New South Wales,Hassall Grove,-33.73349000,150.83542000
Australia,New South Wales,Hawkesbury,-33.34078000,150.78300000
Australia,New South Wales,Hawks Nest,-32.66755000,152.17831000
Australia,New South Wales,Hay,-34.54276000,144.83826000
Australia,New South Wales,Haymarket,-33.87868000,151.20526000
Australia,New South Wales,Hazelbrook,-33.72446000,150.45839000
Australia,New South Wales,Heathcote,-34.08410000,151.01305000
Australia,New South Wales,Hebersham,-33.74582000,150.82385000
Australia,New South Wales,Heckenberg,-33.90828000,150.88982000
Australia,New South Wales,Heddon Greta,-32.80204000,151.51327000
Australia,New South Wales,Helensburgh,-34.17836000,150.99522000
Australia,New South Wales,Henty,-35.52094000,147.03426000
Australia,New South Wales,Hill Top,-34.34792000,150.49550000
Australia,New South Wales,Hillsdale,-33.95151000,151.22784000
Australia,New South Wales,Hillston,-33.48266000,145.53525000
Australia,New South Wales,Hillvue,-31.12756000,150.90711000
Australia,New South Wales,Hinchinbrook,-33.91878000,150.86314000
Australia,New South Wales,Hobartville,-33.60435000,150.74299000
Australia,New South Wales,Holbrook,-35.72100000,147.31605000
Australia,New South Wales,Holmesville,-32.91667000,151.58333000
Australia,New South Wales,Holroyd,-33.83078000,150.99725000
Australia,New South Wales,Holsworthy,-33.98333000,150.96667000
Australia,New South Wales,Homebush,-33.86667000,151.08333000
Australia,New South Wales,Homebush West,-33.86269000,151.06696000
Australia,New South Wales,Horningsea Park,-33.94341000,150.84528000
Australia,New South Wales,Hornsby,-33.70244000,151.09931000
Australia,New South Wales,Hornsby Heights,-33.67130000,151.09428000
Australia,New South Wales,Hornsby Shire,-33.58315000,151.10953000
Australia,New South Wales,Horsley,-34.48763000,150.77799000
Australia,New South Wales,Horsley Park,-33.84322000,150.84889000
Australia,New South Wales,Howlong,-35.98197000,146.63248000
Australia,New South Wales,Hoxton Park,-33.93126000,150.85412000
Australia,New South Wales,Hunters Hill,-33.83437000,151.14510000
Australia,New South Wales,Hunterview,-32.54343000,151.17717000
Australia,New South Wales,Huntingwood,-33.79759320,150.87480900
Australia,New South Wales,Hurlstone Park,-33.90988000,151.12867000
Australia,New South Wales,Hurstville,-33.96770000,151.10149000
Australia,New South Wales,Hurstville Grove,-33.97993000,151.09029000
Australia,New South Wales,Illawong,-34.00000000,151.03333000
Australia,New South Wales,Iluka,-29.40147000,153.35112000
Australia,New South Wales,Ingleburn,-34.00000000,150.86667000
Australia,New South Wales,Inverell,-29.31526000,151.04187000
Australia,New South Wales,Islington,-32.91388000,151.74739000
Australia,New South Wales,Jamberoo,-34.64745000,150.77464000
Australia,New South Wales,Jamisontown,-33.76797000,150.67681000
Australia,New South Wales,Jannali,-34.01643000,151.06065000
Australia,New South Wales,Jerilderie,-35.35757000,145.72962000
Australia,New South Wales,Jerrabomberra,-35.38441000,149.20248000
Australia,New South Wales,Jesmond,-32.90275000,151.69072000
Australia,New South Wales,Jewells,-33.01386000,151.68308000
Australia,New South Wales,Jilliby,-33.22605000,151.41684000
Australia,New South Wales,Jindabyne,-36.41745000,148.62254000
Australia,New South Wales,Jindera,-35.95474000,146.88852000
Australia,New South Wales,Jordan Springs,-33.72138000,150.72873000
Australia,New South Wales,Junction Hill,-29.64113000,152.92491000
Australia,New South Wales,Junee,-34.86819000,147.58273000
Australia,New South Wales,Kahibah,-32.96175000,151.71251000
Australia,New South Wales,Kanahooka,-34.49160000,150.80817000
Australia,New South Wales,Kandos,-32.85772000,149.96832000
Australia,New South Wales,Kanwal,-33.25300000,151.49110000
Australia,New South Wales,Kapooka,-35.15693000,147.28439000
Australia,New South Wales,Karabar,-35.37595000,149.23280000
Australia,New South Wales,Kareela,-34.01336000,151.08345000
Australia,New South Wales,Kariong,-33.43972000,151.29453000
Australia,New South Wales,Karuah,-32.65389000,151.96040000
Australia,New South Wales,Katoomba,-33.71977000,150.30739000
Australia,New South Wales,Kearns,-34.02191000,150.80082000
Australia,New South Wales,Keiraville,-34.41667000,150.86667000
Australia,New South Wales,Kellyville,-33.71028000,150.95095000
Australia,New South Wales,Kellyville Ridge,-33.70156000,150.91790000
Australia,New South Wales,Kelso,-33.41667000,149.60000000
Australia,New South Wales,Kemps Creek,-33.88059000,150.78761000
Australia,New South Wales,Kempsey,-30.90553000,152.68608000
Australia,New South Wales,Kendall,-31.63295000,152.70393000
Australia,New South Wales,Kensington,-33.92019000,151.22241000
Australia,New South Wales,Kenthurst,-33.65527000,151.00503000
Australia,New South Wales,Kew,-31.63602000,152.72662000
Australia,New South Wales,Kiama,-34.67124000,150.84572000
Australia,New South Wales,Kiama Downs,-34.63341000,150.85456000
Australia,New South Wales,Kilaben Bay,-33.02395000,151.59197000
Australia,New South Wales,Killara,-33.76604000,151.16213000
Australia,New South Wales,Killarney Heights,-33.77451000,151.22028000
Australia,New South Wales,Killarney Vale,-33.36319000,151.45799000
Australia,New South Wales,King Creek,-31.49237000,152.75658000
Australia,New South Wales,Kings Langley,-33.75005000,150.93542000
Australia,New South Wales,Kings Park,-33.74320000,150.90761000
Australia,New South Wales,Kingscliff,-28.25983000,153.57816000
Australia,New South Wales,Kingsford,-33.92399000,151.22749000
Australia,New South Wales,Kingsgrove,-33.93932000,151.09928000
Australia,New South Wales,Kingswood Park,-33.76651000,150.71440000
Australia,New South Wales,Kirrawee,-34.03831000,151.06903000
Australia,New South Wales,Kirribilli,-33.84867000,151.21620000
Australia,New South Wales,Kogarah,-33.96810000,151.13564000
Australia,New South Wales,Kogarah Bay,-33.97951000,151.12119000
Australia,New South Wales,Koonawarra,-34.50212000,150.80855000
Australia,New South Wales,Kooringal,-35.14069000,147.37680000
Australia,New South Wales,Kootingal,-31.05857000,151.05350000
Australia,New South Wales,Korora,-30.24620000,153.11487000
Australia,New South Wales,Kosciuszko National Park,-36.26436000,148.48179000
Australia,New South Wales,Kotara,-32.94282000,151.69585000
Australia,New South Wales,Kotara South,-32.95261000,151.69076000
Australia,New South Wales,Ku-ring-gai,-33.72701000,151.14877000
Australia,New South Wales,Kurnell,-34.01088000,151.20512000
Australia,New South Wales,Kurraba Point,-33.84235000,151.22256000
Australia,New South Wales,Kurrajong Heights,-33.52772000,150.62907000
Australia,New South Wales,Kurri Kurri,-32.81933000,151.47908000
Australia,New South Wales,Kyle Bay,-33.98787000,151.09939000
Australia,New South Wales,Kyogle,-28.64643000,152.77871000
Australia,New South Wales,Lachlan,-32.79999000,146.87556000
Australia,New South Wales,Lake Albert,-35.16667000,147.38333000
Australia,New South Wales,Lake Cargelligo,-33.29884000,146.37296000
Australia,New South Wales,Lake Cathie,-31.55183000,152.85465000
Australia,New South Wales,Lake Haven,-33.24303000,151.50434000
Australia,New South Wales,Lake Heights,-34.48433000,150.86649000
Australia,New South Wales,Lake Illawarra,-34.54658000,150.85645000
Australia,New South Wales,Lake Macquarie Shire,-33.03756000,151.53470000
Australia,New South Wales,Lake Munmorah,-33.19716000,151.58240000
Australia,New South Wales,Lakelands,-32.96185000,151.64972000
Australia,New South Wales,Lakemba,-33.91972000,151.07592000
Australia,New South Wales,Lakewood,-31.63210000,152.75820000
Australia,New South Wales,Lalor Park,-33.76090000,150.93123000
Australia,New South Wales,Lambton,-32.91667000,151.70000000
Australia,New South Wales,Lane Cove,-33.82321000,151.17028000
Australia,New South Wales,Lane Cove North,-33.80543000,151.16638000
Australia,New South Wales,Lane Cove West,-33.81613000,151.15145000
Australia,New South Wales,Lansvale,-33.90073000,150.95078000
Australia,New South Wales,Largs,-32.70000000,151.60000000
Australia,New South Wales,Lavington,-36.03976000,146.93958000
Australia,New South Wales,Lawrence,-29.49210000,153.09689000
Australia,New South Wales,Lawson,-33.72064000,150.42975000
Australia,New South Wales,Leeton,-34.52967000,146.26918000
Australia,New South Wales,Leichhardt,-33.88341000,151.15625000
Australia,New South Wales,Lemon Tree Passage,-32.73047000,152.03859000
Australia,New South Wales,Lennox Head,-28.79131000,153.59201000
Australia,New South Wales,Leonay,-33.76542000,150.64806000
Australia,New South Wales,Leppington,-33.96983000,150.79675000
Australia,New South Wales,Lethbridge Park,-33.73716000,150.80042000
Australia,New South Wales,Leumeah,-34.05000000,150.83333000
Australia,New South Wales,Leura,-33.71667000,150.33333000
Australia,New South Wales,Lewisham,-33.89719000,151.14883000
Australia,New South Wales,Liberty Grove,-33.84095000,151.08402000
Australia,New South Wales,Lidcombe,-33.86436000,151.03970000
Australia,New South Wales,Lightning Ridge,-29.42743000,147.97865000
Australia,New South Wales,Lilli Pilli,-34.06830000,151.11574000
Australia,New South Wales,Lilyfield,-33.87499000,151.16530000
Australia,New South Wales,Lindfield,-33.78333000,151.16667000
Australia,New South Wales,Lisarow,-33.38333000,151.36667000
Australia,New South Wales,Lismore,-28.81354000,153.27730000
Australia,New South Wales,Lismore Heights,-28.80102000,153.30048000
Australia,New South Wales,Lismore Municipality,-28.80000000,153.26667000
Australia,New South Wales,Lithgow,-33.32025000,150.18584000
Australia,New South Wales,Little Bay,-33.97899000,151.24299000
Australia,New South Wales,Liverpool,-33.92418000,150.91232000
Australia,New South Wales,Liverpool Plains,-31.47024000,150.42001000
Australia,New South Wales,Llanarth,-33.39687000,149.55105000
Australia,New South Wales,Llandilo,-33.71286000,150.74650000
Australia,New South Wales,Lockhart,-35.32193000,146.79354000
Australia,New South Wales,Loftus,-34.04467000,151.04646000
Australia,New South Wales,Londonderry,-33.64656000,150.73515000
Australia,New South Wales,Long Beach,-35.70833000,150.24483000
Australia,New South Wales,Long Jetty,-33.35917000,151.48834000
Australia,New South Wales,Longueville,-33.83285000,151.16531000
Australia,New South Wales,Lorn,-32.72701000,151.57245000
Australia,New South Wales,Luddenham,-33.87850000,150.68863000
Australia,New South Wales,Lugarno,-33.98267000,151.04184000
Australia,New South Wales,Lurnea,-33.93539000,150.89673000
Australia,New South Wales,Macksville,-30.70780000,152.92029000
Australia,New South Wales,Maclean,-29.45810000,153.19753000
Australia,New South Wales,Macmasters Beach,-33.49663000,151.42215000
Australia,New South Wales,Macquarie Fields,-33.99206000,150.89307000
Australia,New South Wales,Macquarie Hills,-32.95111000,151.64461000
Australia,New South Wales,Macquarie Links,-33.98454000,150.87027000
Australia,New South Wales,Macquarie Park,-33.78105000,151.12757000
Australia,New South Wales,Maitland,-32.73308000,151.55740000
Australia,New South Wales,Maitland city centre,-32.73263000,151.55331000
Australia,New South Wales,Maitland Municipality,-32.73333000,151.55000000
Australia,New South Wales,Malabar,-33.96216000,151.24796000
Australia,New South Wales,Malua Bay,-35.79382000,150.22833000
Australia,New South Wales,Mangerton,-34.43667000,150.87167000
Australia,New South Wales,Manilla,-30.74748000,150.71974000
Australia,New South Wales,Manly,-33.79798000,151.28826000
Australia,New South Wales,Manly Vale,-33.78457000,151.26200000
Australia,New South Wales,Mannering Park,-33.15810000,151.53477000
Australia,New South Wales,Maraylya,-33.59221000,150.91979000
Australia,New South Wales,Marayong,-33.74824000,150.89272000
Australia,New South Wales,Mardi,-33.29368000,151.40150000
Australia,New South Wales,Marks Point,-33.05645000,151.64955000
Australia,New South Wales,Maroubra,-33.95000000,151.23333000
Australia,New South Wales,Marrickville,-33.90741000,151.15546000
Australia,New South Wales,Marsfield,-33.77784000,151.10574000
Australia,New South Wales,Marulan,-34.70836000,150.00966000
Australia,New South Wales,Maryland,-32.87888000,151.66143000
Australia,New South Wales,Maryville,-32.91121000,151.75543000
Australia,New South Wales,Mascot,-33.92598000,151.19347000
Australia,New South Wales,Matraville,-33.96344000,151.23195000
Australia,New South Wales,Mayfield,-32.89793000,151.73613000
Australia,New South Wales,Mayfield East,-32.90031000,151.74972000
Australia,New South Wales,Mayfield West,-32.89195000,151.72711000
Australia,New South Wales,McGraths Hill,-33.61551000,150.83372000
Australia,New South Wales,McMahons Point,-33.84492000,151.20307000
Australia,New South Wales,Meadowbank,-33.81668000,151.08861000
Australia,New South Wales,Medowie,-32.74150000,151.86760000
Australia,New South Wales,Melrose Park,-33.81491000,151.07208000
Australia,New South Wales,Menai,-34.01667000,151.01667000
Australia,New South Wales,Menangle,-34.12675000,150.73868000
Australia,New South Wales,Merewether,-32.94801000,151.74325000
Australia,New South Wales,Merewether Heights,-32.94733000,151.73565000
Australia,New South Wales,Merimbula,-36.88901000,149.90961000
Australia,New South Wales,Merriwa,-32.13922000,150.35562000
Australia,New South Wales,Merrylands,-33.83333000,150.98333000
Australia,New South Wales,Merrylands West,-33.83269000,150.96906000
Australia,New South Wales,Metford,-32.76497000,151.60940000
Australia,New South Wales,Mid-Western Regional,-32.60202000,149.76748000
Australia,New South Wales,Middle Cove,-33.79280000,151.21248000
Australia,New South Wales,Middleton Grange,-33.91704000,150.84186000
Australia,New South Wales,Miller,-33.92089000,150.88469000
Australia,New South Wales,Millers Point,-33.85957000,151.20406000
Australia,New South Wales,Millthorpe,-33.44601000,149.18539000
Australia,New South Wales,Milperra,-33.93934000,150.98148000
Australia,New South Wales,Milsons Point,-33.84600000,151.21192000
Australia,New South Wales,Milton,-35.31644000,150.43610000
Australia,New South Wales,Minchinbury,-33.78724000,150.82956000
Australia,New South Wales,Minto,-34.03333000,150.85000000
Australia,New South Wales,Miranda,-34.03857000,151.10005000
Australia,New South Wales,Mitchell,-33.42732000,149.55674000
Australia,New South Wales,Mittagong,-34.45002000,150.44572000
Australia,New South Wales,Moama,-36.10413000,144.76080000
Australia,New South Wales,Mollymook,-35.34107000,150.46952000
Australia,New South Wales,Mollymook Beach,-35.32966000,150.47173000
Australia,New South Wales,Molong,-33.09233000,148.87002000
Australia,New South Wales,Mona Vale,-33.67757000,151.30307000
Australia,New South Wales,Monterey,-33.97250000,151.14810000
Australia,New South Wales,Moonbi,-31.01775000,151.07062000
Australia,New South Wales,Moonee Beach,-30.20575000,153.15293000
Australia,New South Wales,Moorebank,-33.94372000,150.95657000
Australia,New South Wales,Moree,-29.46278000,149.84157000
Australia,New South Wales,Moree Plains,-29.32131000,149.58121000
Australia,New South Wales,Morisset,-33.10801000,151.48706000
Australia,New South Wales,Morpeth,-32.73333000,151.63333000
Australia,New South Wales,Mortdale,-33.96897000,151.07231000
Australia,New South Wales,Mortlake,-33.84217000,151.10719000
Australia,New South Wales,Moruya,-35.91250000,150.08144000
Australia,New South Wales,Mosman,-33.82845000,151.24866000
Australia,New South Wales,Moss Vale,-34.55374000,150.37115000
Australia,New South Wales,Mount Annan,-34.05287000,150.75984000
Australia,New South Wales,Mount Austin,-35.13684000,147.35304000
Australia,New South Wales,Mount Colah,-33.68333000,151.11667000
Australia,New South Wales,Mount Druitt,-33.76667000,150.81667000
Australia,New South Wales,Mount Hutton,-32.98329000,151.67012000
Australia,New South Wales,Mount Keira,-34.39678000,150.85268000
Australia,New South Wales,Mount Kembla,-34.42881000,150.82161000
Australia,New South Wales,Mount Kuring-Gai,-33.64197000,151.12865000
Australia,New South Wales,Mount Lewis,-33.91750000,151.04828000
Australia,New South Wales,Mount Ousley,-34.40213000,150.88786000
Australia,New South Wales,Mount Pleasant,-34.39531000,150.86658000
Australia,New South Wales,Mount Pritchard,-33.90295000,150.90465000
Australia,New South Wales,Mount Riverview,-33.73074000,150.63532000
Australia,New South Wales,Mount Saint Thomas,-34.44333000,150.87222000
Australia,New South Wales,Mount Vernon,-33.86036000,150.81007000
Australia,New South Wales,Mount Warrigal,-34.54804000,150.83752000
Australia,New South Wales,Mudgee,-32.59426000,149.58710000
Australia,New South Wales,Mulgoa,-33.83800000,150.64963000
Australia,New South Wales,Mullumbimby,-28.55236000,153.49956000
Australia,New South Wales,Mulwala,-35.98536000,146.00534000
Australia,New South Wales,Murrumbateman,-34.97199000,149.02985000
Australia,New South Wales,Murrurundi,-31.76422000,150.83575000
Australia,New South Wales,Murwillumbah,-28.32732000,153.39339000
Australia,New South Wales,Muswellbrook,-32.48935000,150.69839000
Australia,New South Wales,Nabiac,-32.09837000,152.37627000
Australia,New South Wales,Nambucca,-30.63333000,152.98333000
Australia,New South Wales,Nambucca Heads,-30.64318000,153.00884000
Australia,New South Wales,Nambucca Shire,-30.70829000,152.71024000
Australia,New South Wales,Nana Glen,-30.13333000,153.01667000
Australia,New South Wales,Narara,-33.39593000,151.33527000
Australia,New South Wales,Narellan,-34.04338000,150.73236000
Australia,New South Wales,Narellan Vale,-34.04974000,150.74392000
Australia,New South Wales,Naremburn,-33.81698000,151.20079000
Australia,New South Wales,Narooma,-36.21783000,150.13247000
Australia,New South Wales,Narrabeen,-33.71277000,151.29736000
Australia,New South Wales,Narrabri,-30.32779000,149.60242000
Australia,New South Wales,Narrandera,-34.59107000,146.53197000
Australia,New South Wales,Narrawallee,-35.31243000,150.46351000
Australia,New South Wales,Narraweena,-33.75519000,151.27659000
Australia,New South Wales,Narromine,-32.23174000,147.97591000
Australia,New South Wales,Narwee,-33.94653000,151.06919000
Australia,New South Wales,Nelson Bay,-32.72043000,152.14398000
Australia,New South Wales,Neutral Bay,-33.83784000,151.21750000
Australia,New South Wales,New Lambton,-32.92838000,151.70850000
Australia,New South Wales,New Lambton Heights,-32.92466000,151.69364000
Australia,New South Wales,Newcastle,-32.92953000,151.78010000
Australia,New South Wales,Newcastle city centre,-32.92885000,151.77740000
Australia,New South Wales,Newcastle East,-32.92771000,151.78840000
Australia,New South Wales,Newington,-33.83488000,151.05703000
Australia,New South Wales,Newport,-33.65639000,151.31401000
Australia,New South Wales,Newtown,-33.89835000,151.17754000
Australia,New South Wales,Niagara Park,-33.37638000,151.34860000
Australia,New South Wales,Nimbin,-28.59545000,153.22336000
Australia,New South Wales,Noraville,-33.26785000,151.55352000
Australia,New South Wales,Normanhurst,-33.72370000,151.09576000
Australia,New South Wales,North Albury,-36.05745000,146.92995000
Australia,New South Wales,North Avoca,-33.45608000,151.43511000
Australia,New South Wales,North Balgowlah,-33.78631000,151.24801000
Australia,New South Wales,North Boambee Valley,-30.31295000,153.06925000
Australia,New South Wales,North Bondi,-33.88787000,151.28075000
Australia,New South Wales,North Curl Curl,-33.76434000,151.29727000
Australia,New South Wales,North Epping,-33.75944000,151.09248000
Australia,New South Wales,North Gosford,-33.41400000,151.35160000
Australia,New South Wales,North Haven,-31.63680000,152.81357000
Australia,New South Wales,North Lambton,-32.90605000,151.70574000
Australia,New South Wales,North Manly,-33.77561000,151.26921000
Australia,New South Wales,North Narrabeen,-33.70935000,151.29607000
Australia,New South Wales,North Nowra,-34.85822000,150.57479000
Australia,New South Wales,North Parramatta,-33.79351000,151.00124000
Australia,New South Wales,North Richmond,-33.58117000,150.71942000
Australia,New South Wales,North Rocks,-33.77223000,151.01718000
Australia,New South Wales,North Ryde,-33.79677000,151.12436000
Australia,New South Wales,North St Marys,-33.75491000,150.78435000
Australia,New South Wales,North Strathfield,-33.85693000,151.09124000
Australia,New South Wales,North Sydney,-33.83422000,151.21019000
Australia,New South Wales,North Tamworth,-31.07862000,150.92219000
Australia,New South Wales,North Turramurra,-33.71313000,151.14638000
Australia,New South Wales,North Wahroonga,-33.70531000,151.12278000
Australia,New South Wales,North Willoughby,-33.79563000,151.20067000
Australia,New South Wales,North Wollongong,-34.40569000,150.89763000
Australia,New South Wales,Northbridge,-33.81313000,151.21728000
Australia,New South Wales,Northmead,-33.78378000,150.99858000
Australia,New South Wales,Nowra,-34.88422000,150.60036000
Australia,New South Wales,Nowra Hill,-34.92845000,150.57243000
Australia,New South Wales,Nyngan,-31.56375000,147.19373000
Australia,New South Wales,Oak Flats,-34.56229000,150.82193000
Australia,New South Wales,Oakdale,-34.07930000,150.51320000
Australia,New South Wales,Oakhurst,-33.73883000,150.83837000
Australia,New South Wales,Oakville,-33.61558000,150.88006000
Australia,New South Wales,Oatlands,-33.79595000,151.02712000
Australia,New South Wales,Oatley,-33.98004000,151.07201000
Australia,New South Wales,Oberon,-33.84531000,149.81795000
Australia,New South Wales,Ocean Shores,-28.50930000,153.53760000
Australia,New South Wales,Old Bar,-31.96940000,152.58807000
Australia,New South Wales,Old Erowal Bay,-35.08460000,150.64568000
Australia,New South Wales,Old Guildford,-33.86429000,150.98395000
Australia,New South Wales,Old Toongabbie,-33.78763000,150.96897000
Australia,New South Wales,Oran Park,-34.00564000,150.74032000
Australia,New South Wales,Orange,-33.28397000,149.10018000
Australia,New South Wales,Orange Municipality,-33.32834000,149.12294000
Australia,New South Wales,Orangeville,-34.03108000,150.60179000
Australia,New South Wales,Orchard Hills,-33.78230000,150.71088000
Australia,New South Wales,Ourimbah,-33.31424000,151.33031000
Australia,New South Wales,Oxley Park,-33.77072000,150.79502000
Australia,New South Wales,Oxley Vale,-31.06316000,150.90060000
Australia,New South Wales,Oyster Bay,-34.00407000,151.07588000
Australia,New South Wales,Paddington,-33.88419000,151.23151000
Australia,New South Wales,Padstow,-33.95687000,151.03191000
Australia,New South Wales,Padstow Heights,-33.96740000,151.03991000
Australia,New South Wales,Pagewood,-33.94137000,151.21093000
Australia,New South Wales,Palm Beach,-33.59664000,151.32384000
Australia,New South Wales,Panania,-33.95366000,150.99733000
Australia,New South Wales,Parkes,-32.82318000,148.02514000
Australia,New South Wales,Parklea,-33.72439000,150.91820000
Australia,New South Wales,Parramatta,-33.81248000,151.00262000
Australia,New South Wales,Peak Hill,-32.72387000,148.19052000
Australia,New South Wales,Peakhurst,-33.96288000,151.05161000
Australia,New South Wales,Peakhurst Heights,-33.97735000,151.05557000
Australia,New South Wales,Pemulwuy,-33.82274000,150.92395000
Australia,New South Wales,Pendle Hill,-33.80402000,150.95543000
Australia,New South Wales,Pennant Hills,-33.73783000,151.07216000
Australia,New South Wales,Penrith,-33.75000000,150.70000000
Australia,New South Wales,Penrith Municipality,-33.75000000,150.70000000
Australia,New South Wales,Penshurst,-33.96667000,151.08333000
Australia,New South Wales,Petersham,-33.89460000,151.15495000
Australia,New South Wales,Phillip,-31.13333000,150.85000000
Australia,New South Wales,Picnic Point,-33.98062000,150.99661000
Australia,New South Wales,Picton,-34.16995000,150.61168000
Australia,New South Wales,Pitt Town,-33.58718000,150.85857000
Australia,New South Wales,Plumpton,-33.75184000,150.83686000
Australia,New South Wales,Point Clare,-33.44378000,151.32732000
Australia,New South Wales,Point Frederick,-33.44036000,151.34322000
Australia,New South Wales,Point Piper,-33.86667000,151.25000000
Australia,New South Wales,Pokolbin,-32.80000000,151.28333000
Australia,New South Wales,Port Hacking,-34.06791000,151.12561000
Australia,New South Wales,Port Kembla,-34.48180000,150.90120000
Australia,New South Wales,Port Macquarie,-31.43084000,152.90894000
Australia,New South Wales,Port Macquarie-Hastings,-31.42106000,152.51916000
Australia,New South Wales,Port Stephens Shire,-32.72855000,151.89952000
Australia,New South Wales,Portland,-33.35709000,149.98148000
Australia,New South Wales,Potts Point,-33.86701000,151.22586000
Australia,New South Wales,Pottsville,-28.38740000,153.55857000
Australia,New South Wales,Pottsville Beach,-28.38853000,153.56564000
Australia,New South Wales,Prairiewood,-33.86325000,150.90521000
Australia,New South Wales,Prestons,-33.94185000,150.87170000
Australia,New South Wales,Primbee,-34.50358000,150.87950000
Australia,New South Wales,Prospect,-33.80154000,150.91358000
Australia,New South Wales,Punchbowl,-33.92893000,151.05111000
Australia,New South Wales,Putney,-33.82613000,151.10630000
Australia,New South Wales,Pymble,-33.74386000,151.14188000
Australia,New South Wales,Pyrmont,-33.86985000,151.19402000
Australia,New South Wales,Quakers Hill,-33.73333000,150.88333000
Australia,New South Wales,Queanbeyan,-35.35493000,149.23200000
Australia,New South Wales,Queanbeyan East,-35.34625000,149.24596000
Australia,New South Wales,Queanbeyan West,-35.35497000,149.20412000
Australia,New South Wales,Queens Park,-33.89946000,151.24724000
Australia,New South Wales,Queenscliff,-33.78278000,151.28495000
Australia,New South Wales,Quirindi,-31.50763000,150.67902000
Australia,New South Wales,Raby,-34.01846000,150.81764000
Australia,New South Wales,Raglan,-33.41667000,149.66667000
Australia,New South Wales,Ramsgate,-33.98220000,151.14000000
Australia,New South Wales,Ramsgate Beach,-33.98523000,151.14634000
Australia,New South Wales,Randwick,-33.91667000,151.25000000
Australia,New South Wales,Rankin Park,-32.92516000,151.68016000
Australia,New South Wales,Rathmines,-33.03773000,151.58443000
Australia,New South Wales,Raworth,-32.73333000,151.61667000
Australia,New South Wales,Raymond Terrace,-32.75952000,151.75050000
Australia,New South Wales,Razorback,-34.15237000,150.65308000
Australia,New South Wales,Redfern,-33.89279000,151.20415000
Australia,New South Wales,Redhead,-33.01178000,151.71142000
Australia,New South Wales,Regents Park,-33.88333000,151.01667000
Australia,New South Wales,Revesby,-33.95000000,151.01667000
Australia,New South Wales,Revesby Heights,-33.96710000,151.01841000
Australia,New South Wales,Rhodes,-33.82663000,151.08810000
Australia,New South Wales,Richmond,-33.59956000,150.75142000
Australia,New South Wales,Richmond Valley,-29.02684000,153.08625000
Australia,New South Wales,Riverstone,-33.68333000,150.86667000
Australia,New South Wales,Riverview,-33.82465000,151.16243000
Australia,New South Wales,Riverwood,-33.94725000,151.04973000
Australia,New South Wales,Robertson,-34.58742000,150.59116000
Australia,New South Wales,Rockdale,-33.96611000,151.14342000
Australia,New South Wales,Rodd Point,-33.86662000,151.13995000
Australia,New South Wales,Rooty Hill,-33.76667000,150.83333000
Australia,New South Wales,Ropes Crossing,-33.73276000,150.79104000
Australia,New South Wales,Rose Bay,-33.86877000,151.27060000
Australia,New South Wales,Rosebery,-33.91855330,151.19612440
Australia,New South Wales,Rosehill,-33.82009000,151.02450000
Australia,New South Wales,Roselands,-33.93317000,151.07320000
Australia,New South Wales,Rosemeadow,-34.10414000,150.79282000
Australia,New South Wales,Roseville,-33.78333000,151.18333000
Australia,New South Wales,Roseville Chase,-33.77852000,151.19677000
Australia,New South Wales,Rouse Hill,-33.68207000,150.91540000
Australia,New South Wales,Rozelle,-33.86141000,151.17050000
Australia,New South Wales,Ruse,-34.06976000,150.84168000
Australia,New South Wales,Rushcutters Bay,-33.87480000,151.22799000
Australia,New South Wales,Russell Lea,-33.85889000,151.14111000
Australia,New South Wales,Russell Vale,-34.35542000,150.89434000
Australia,New South Wales,Rutherford,-32.71667000,151.53333000
Australia,New South Wales,Rydalmere,-33.81453000,151.03751000
Australia,New South Wales,Ryde,-33.80149000,151.11205000
Australia,New South Wales,Sadleir,-33.91713000,150.89093000
Australia,New South Wales,Saint Ives,-33.72976000,151.15977000
Australia,New South Wales,Saint Peters,-33.91667000,151.18333000
Australia,New South Wales,Salamander Bay,-32.72253000,152.07945000
Australia,New South Wales,Salt Ash,-32.78333000,151.91667000
Australia,New South Wales,San Remo,-33.21469000,151.52102000
Australia,New South Wales,Sanctuary Point,-35.10361000,150.62667000
Australia,New South Wales,Sandringham,-33.99447000,151.13913000
Australia,New South Wales,Sandy Beach,-30.14681000,153.19238000
Australia,New South Wales,Sans Souci,-33.98990000,151.13334000
Australia,New South Wales,Sapphire Beach,-30.22614000,153.13628000
Australia,New South Wales,Saratoga,-33.47564000,151.35207000
Australia,New South Wales,Sawtell,-30.36459000,153.10141000
Australia,New South Wales,Schofields,-33.71667000,150.86667000
Australia,New South Wales,Scone,-32.05014000,150.86893000
Australia,New South Wales,Seaforth,-33.80145000,151.23981000
Australia,New South Wales,Sefton,-33.88773000,151.01053000
Australia,New South Wales,Seven Hills,-33.78333000,150.93333000
Australia,New South Wales,Shalvey,-33.72687000,150.80529000
Australia,New South Wales,Shell Cove,-34.58994000,150.86203000
Australia,New South Wales,Shellharbour,-34.58333000,150.86667000
Australia,New South Wales,Shelly Beach,-33.36999000,151.48522000
Australia,New South Wales,Shoal Bay,-32.72231000,152.17498000
Australia,New South Wales,Shoalhaven Heads,-34.85086000,150.74512000
Australia,New South Wales,Shoalhaven Shire,-35.14162000,150.41295000
Australia,New South Wales,Shortland,-32.87883000,151.69105000
Australia,New South Wales,Silverdale,-33.91520000,150.60960000
Australia,New South Wales,Silverwater,-33.83343000,151.04731000
Australia,New South Wales,Singleton,-32.60547000,150.91872000
Australia,New South Wales,Singleton Heights,-32.54160000,151.16089000
Australia,New South Wales,Skennars Head,-28.82888000,153.60209000
Australia,New South Wales,Smithfield,-33.85000000,150.93333000
Australia,New South Wales,Smiths Lake,-32.38043000,152.50337000
Australia,New South Wales,Soldiers Point,-32.71050000,152.06979000
Australia,New South Wales,Somersby,-33.36667000,151.28333000
Australia,New South Wales,South Albury,-36.08654000,146.90905000
Australia,New South Wales,South Bathurst,-33.43839000,149.57203000
Australia,New South Wales,South Bowenfels,-33.51667000,150.11667000
Australia,New South Wales,South Coogee,-33.93106000,151.25599000
Australia,New South Wales,South Grafton,-29.70760000,152.92627000
Australia,New South Wales,South Granville,-33.85864000,151.01066000
Australia,New South Wales,South Hurstville,-33.97756000,151.10550000
Australia,New South Wales,South Kempsey,-31.12302000,152.83253000
Australia,New South Wales,South Lismore,-28.81629000,153.25619000
Australia,New South Wales,South Murwillumbah,-28.33895000,153.40004000
Australia,New South Wales,South Nowra,-34.90332000,150.59827000
Australia,New South Wales,South Penrith,-33.77349000,150.69466000
Australia,New South Wales,South Tamworth,-31.11000000,150.92254000
Australia,New South Wales,South Turramurra,-33.74941000,151.11257000
Australia,New South Wales,South Wentworthville,-33.81850000,150.96344000
Australia,New South Wales,South West Rocks,-30.88553000,153.04126000
Australia,New South Wales,South Windsor,-33.61808000,150.80443000
Australia,New South Wales,Speers Point,-32.96383000,151.62618000
Australia,New South Wales,Spring Farm,-34.06851000,150.71182000
Australia,New South Wales,Springdale Heights,-36.03095000,146.94783000
Australia,New South Wales,Springvale,-35.16687000,147.33058000
Australia,New South Wales,Springwood,-33.70000000,150.55000000
Australia,New South Wales,St Andrews,-34.02243000,150.82958000
Australia,New South Wales,St Clair,-33.79728000,150.78470000
Australia,New South Wales,St Helens Park,-34.10474000,150.81368000
Australia,New South Wales,St Huberts Island,-33.49562000,151.34616000
Australia,New South Wales,St Ives Chase,-33.70381000,151.16460000
Australia,New South Wales,St Johns Park,-33.88295000,150.90182000
Australia,New South Wales,St Leonards,-33.82344000,151.19836000
Australia,New South Wales,St. Georges Basin,-35.08986000,150.59801000
Australia,New South Wales,Stanhope Gardens,-33.72206000,150.92597000
Australia,New South Wales,Stanmore,-33.89407000,151.16424000
Australia,New South Wales,Stanwell Park,-34.22610000,150.98583000
Australia,New South Wales,Stockton,-32.90908000,151.78360000
Australia,New South Wales,Strathfield,-33.87978000,151.07561000
Australia,New South Wales,Strathfield South,-33.89252000,151.08334000
Australia,New South Wales,Suffolk Park,-28.68810000,153.60977000
Australia,New South Wales,Summer Hill,-33.89146000,151.13825000
Australia,New South Wales,Summerland Point,-33.14091000,151.56561000
Australia,New South Wales,Sunshine Bay,-35.74540000,150.20792000
Australia,New South Wales,Surfside,-35.69531000,150.19949000
Australia,New South Wales,Surry Hills,-33.88374000,151.21282000
Australia,New South Wales,Sussex Inlet,-35.15671000,150.58533000
Australia,New South Wales,Sutherland,-34.03100000,151.05532000
Australia,New South Wales,Sutherland Shire,-34.07202000,151.07712000
Australia,New South Wales,Sutton,-35.16667000,149.25000000
Australia,New South Wales,Swansea,-33.08765000,151.63745000
Australia,New South Wales,Sydenham,-33.91669000,151.16798000
Australia,New South Wales,Sydney,-33.86785000,151.20732000
Australia,New South Wales,Sydney Central Business District,-33.86482000,151.20773000
Australia,New South Wales,Sydney Olympic Park,-33.84983000,151.06828000
Australia,New South Wales,Sylvania,-34.01242000,151.09718000
Australia,New South Wales,Sylvania Waters,-34.01868000,151.10860000
Australia,New South Wales,Table Top,-35.96667000,147.00000000
Australia,New South Wales,Tahmoor,-34.22246000,150.59467000
Australia,New South Wales,Tamarama,-33.89835000,151.27059000
Australia,New South Wales,Tamworth,-31.09048000,150.92905000
Australia,New South Wales,Tamworth Municipality,-30.92204000,150.81526000
Australia,New South Wales,Tanilba Bay,-32.74706000,151.99714000
Australia,New South Wales,Taree,-31.91099000,152.45387000
Australia,New South Wales,Taren Point,-34.01936000,151.11826000
Australia,New South Wales,Tarrawanna,-34.38152000,150.88799000
Australia,New South Wales,Tarro,-32.80000000,151.66667000
Australia,New South Wales,Tascott,-33.45017000,151.31375000
Australia,New South Wales,Tathra,-36.73126000,149.98328000
Australia,New South Wales,Tatton,-35.15990000,147.35875000
Australia,New South Wales,Tea Gardens,-32.66351000,152.15404000
Australia,New South Wales,Telarah,-32.72876000,151.53453000
Australia,New South Wales,Telopea,-33.79279000,151.03858000
Australia,New South Wales,Temora,-34.44834000,147.53558000
Australia,New South Wales,Temora Municipality,-34.38314000,147.47917000
Australia,New South Wales,Tempe,-33.92335000,151.16020000
Australia,New South Wales,Tenambit,-32.73967000,151.61293000
Australia,New South Wales,Tennyson Point,-33.83172000,151.11682000
Australia,New South Wales,Tenterfield,-29.04946000,152.01952000
Australia,New South Wales,Tenterfield Municipality,-29.06897000,152.04803000
Australia,New South Wales,Teralba,-32.96667000,151.60000000
Australia,New South Wales,Terranora,-28.23832000,153.50078000
Australia,New South Wales,Terrigal,-33.44815000,151.44665000
Australia,New South Wales,Terry Hills,-33.68333000,151.23333000
Australia,New South Wales,The Entrance,-33.33876000,151.49780000
Australia,New South Wales,The Entrance North,-33.33573000,151.50335000
Australia,New South Wales,The Hill,-32.93089000,151.77835000
Australia,New South Wales,The Hills Shire,-33.59118000,150.96100000
Australia,New South Wales,The Junction,-32.93822000,151.75909000
Australia,New South Wales,The Oaks,-34.07995000,150.56998000
Australia,New South Wales,The Ponds,-33.70228000,150.91086000
Australia,New South Wales,The Rock,-35.27302000,147.11381000
Australia,New South Wales,The Rocks,-33.85923000,151.20810000
Australia,New South Wales,Thirlmere,-34.20455000,150.56767000
Australia,New South Wales,Thirroul,-34.31604000,150.92142000
Australia,New South Wales,Thornleigh,-33.73228000,151.07895000
Australia,New South Wales,Thornton,-32.78333000,151.63333000
Australia,New South Wales,Thurgoona,-36.03626000,146.99609000
Australia,New South Wales,Tighes Hill,-32.90732000,151.75090000
Australia,New South Wales,Tingira Heights,-32.99725000,151.67021000
Australia,New South Wales,Tinonee,-31.93634000,152.41425000
Australia,New South Wales,Tocumwal,-35.81150000,145.56922000
Australia,New South Wales,Tolland,-35.14521000,147.35162000
Australia,New South Wales,Tomakin,-35.82335000,150.18794000
Australia,New South Wales,Tomerong,-35.05231000,150.58650000
Australia,New South Wales,Toongabbie,-33.78333000,150.95000000
Australia,New South Wales,Toormina,-30.35384000,153.08843000
Australia,New South Wales,Toronto,-33.01357000,151.59373000
Australia,New South Wales,Toukley,-33.26367000,151.53841000
Australia,New South Wales,Towradgi,-34.38667000,150.90278000
Australia,New South Wales,Trangie,-32.03147000,147.98344000
Australia,New South Wales,Tregear,-33.74562000,150.79294000
Australia,New South Wales,Tuggerawong,-33.28040000,151.48044000
Australia,New South Wales,Tumbarumba,-35.77806000,148.01172000
Australia,New South Wales,Tumbi Vmbi,-33.36667000,151.45000000
Australia,New South Wales,Tumut,-35.30642000,148.21818000
Australia,New South Wales,Tuncurry,-32.17443000,152.49876000
Australia,New South Wales,Tura Beach,-36.86358000,149.93027000
Australia,New South Wales,Tuross Head,-36.05328000,150.13322000
Australia,New South Wales,Turramurra,-33.73342000,151.12849000
Australia,New South Wales,Turrella,-33.93033000,151.14209000
Australia,New South Wales,Turvey Park,-35.12849000,147.36264000
Australia,New South Wales,Tweed,-28.34991000,153.34652000
Australia,New South Wales,Tweed Heads,-28.17671000,153.54520000
Australia,New South Wales,Tweed Heads South,-28.19517000,153.53964000
Australia,New South Wales,Tweed Heads West,-28.18736000,153.52278000
Australia,New South Wales,Ulladulla,-35.35906000,150.47247000
Australia,New South Wales,Ultimo,-33.87722000,151.19720000
Australia,New South Wales,Umina Beach,-33.52314000,151.31325000
Australia,New South Wales,Unanderra,-34.45306000,150.84746000
Australia,New South Wales,Upper Hunter Shire,-31.98126000,150.69282000
Australia,New South Wales,Upper Lachlan Shire,-34.41867000,149.53061000
Australia,New South Wales,Uralla,-30.48548000,151.35451000
Australia,New South Wales,Urunga,-30.49701000,153.01422000
Australia,New South Wales,Valentine,-33.01504000,151.64290000
Australia,New South Wales,Valla Beach,-30.59259000,153.01131000
Australia,New South Wales,Valley Heights,-33.70000000,150.58333000
Australia,New South Wales,Vaucluse,-33.85549000,151.27754000
Australia,New South Wales,Villawood,-33.88434000,150.98027000
Australia,New South Wales,Vincentia,-35.06825000,150.67480000
Australia,New South Wales,Vineyard,-33.64995000,150.85259000
Australia,New South Wales,Voyager Point,-33.95871000,150.97417000
Australia,New South Wales,Wadalba,-33.27230000,151.46487000
Australia,New South Wales,Wagga Wagga,-35.18587000,147.35509000
Australia,New South Wales,Wahroonga,-33.71816000,151.11561000
Australia,New South Wales,Waitara,-33.71092000,151.10330000
Australia,New South Wales,Wakeley,-33.87427000,150.90976000
Australia,New South Wales,Walcha,-31.19757000,151.81854000
Australia,New South Wales,Walgett,-29.79031000,148.13393000
Australia,New South Wales,Wallacia,-33.86577000,150.64021000
Australia,New South Wales,Wallalong,-32.69556000,151.64957000
Australia,New South Wales,Wallerawang,-33.41096000,150.06456000
Australia,New South Wales,Wallsend,-32.90133000,151.66432000
Australia,New South Wales,Wamberal,-33.41554000,151.44559000
Australia,New South Wales,Wamboin,-35.25073000,149.33284000
Australia,New South Wales,Wangi Wangi,-33.07185000,151.59840000
Australia,New South Wales,Warabrook,-32.88885000,151.71493000
Australia,New South Wales,Waratah,-32.90667000,151.72647000
Australia,New South Wales,Waratah West,-32.90003000,151.71170000
Australia,New South Wales,Wareemba,-33.85819000,151.13085000
Australia,New South Wales,Warialda,-29.54354000,150.57542000
Australia,New South Wales,Warilla,-34.55185000,150.85831000
Australia,New South Wales,Warners Bay,-32.97251000,151.65268000
Australia,New South Wales,Warragamba,-33.89191000,150.60461000
Australia,New South Wales,Warrawee,-33.72884000,151.12051000
Australia,New South Wales,Warrawong,-34.48500000,150.88833000
Australia,New South Wales,Warren,-31.70224000,147.83392000
Australia,New South Wales,Warren Shire,-31.29549000,147.72853000
Australia,New South Wales,Warriewood,-33.68857000,151.29534000
Australia,New South Wales,Warrimoo,-33.71667000,150.60000000
Australia,New South Wales,Warrumbungle Shire,-31.45519000,149.45377000
Australia,New South Wales,Warwick Farm,-33.91291000,150.93701000
Australia,New South Wales,Watanobbi,-33.26772000,151.42246000
Australia,New South Wales,Waterview Heights,-29.69775000,152.83922000
Australia,New South Wales,Wattle Grove,-33.95443000,150.94447000
Australia,New South Wales,Wattle Ponds,-32.52026000,151.19359000
Australia,New South Wales,Wauchope,-31.45792000,152.72617000
Australia,New South Wales,Waverley,-33.90181000,151.25599000
Australia,New South Wales,Waverton,-33.83863000,151.20046000
Australia,New South Wales,Weddin,-33.87903000,148.01125000
Australia,New South Wales,Wee Waa,-30.22660000,149.44041000
Australia,New South Wales,Wellington,-32.55588000,148.94508000
Australia,New South Wales,Wentworth,-33.67106000,142.33675000
Australia,New South Wales,Wentworth Falls,-33.71033000,150.37534000
Australia,New South Wales,Wentworth Point,-33.83080000,151.07441000
Australia,New South Wales,Wentworthville,-33.80652000,150.96785000
Australia,New South Wales,Werrington,-33.75920000,150.75266000
Australia,New South Wales,Werrington County,-33.74650000,150.73929000
Australia,New South Wales,Werrington Downs,-33.74206000,150.72779000
Australia,New South Wales,Werris Creek,-31.34908000,150.64870000
Australia,New South Wales,West Albury,-36.07979000,146.89227000
Australia,New South Wales,West Ballina,-28.86200000,153.53291000
Australia,New South Wales,West Bathurst,-33.40920000,149.56324000
Australia,New South Wales,West Gosford,-33.42578000,151.31701000
Australia,New South Wales,West Haven,-31.63555000,152.78378000
Australia,New South Wales,West Hoxton,-33.93388000,150.83234000
Australia,New South Wales,West Kempsey,-31.05757000,152.82794000
Australia,New South Wales,West Nowra,-34.88593000,150.58333000
Australia,New South Wales,West Pennant Hills,-33.74570000,151.04764000
Australia,New South Wales,West Pymble,-33.76667000,151.13333000
Australia,New South Wales,West Ryde,-33.80543000,151.07386000
Australia,New South Wales,West Tamworth,-31.10236000,150.91447000
Australia,New South Wales,West Wallsend,-32.90000000,151.58333000
Australia,New South Wales,West Wollongong,-34.42480000,150.86417000
Australia,New South Wales,West Wyalong,-33.92373000,147.20473000
Australia,New South Wales,Westdale,-31.09052000,150.85678000
Australia,New South Wales,Westleigh,-33.71176000,151.07139000
Australia,New South Wales,Westmead,-33.80383000,150.98768000
Australia,New South Wales,Wetherill Park,-33.84277000,150.90061000
Australia,New South Wales,Whalan,-33.75697000,150.80402000
Australia,New South Wales,Whale Beach,-33.61241180,151.32540650
Australia,New South Wales,Wheeler Heights,-33.73119000,151.28049000
Australia,New South Wales,Whitebridge,-32.97436000,151.71614000
Australia,New South Wales,Wickham,-32.91923000,151.75693000
Australia,New South Wales,Wilberforce,-33.56256000,150.83784000
Australia,New South Wales,Wiley Park,-33.92420000,151.06737000
Australia,New South Wales,Williamtown,-32.80638000,151.84361000
Australia,New South Wales,Willmot,-33.72534000,150.79259000
Australia,New South Wales,Willoughby,-33.80167000,151.18782000
Australia,New South Wales,Willoughby East,-33.79844000,151.20518000
Australia,New South Wales,Wilton,-34.24053000,150.69771000
Australia,New South Wales,Windale,-32.99277000,151.68167000
Australia,New South Wales,Windang,-34.53333000,150.86667000
Australia,New South Wales,Windradyne,-33.40539000,149.54507000
Australia,New South Wales,Windsor,-33.61309000,150.81416000
Australia,New South Wales,Windsor Downs,-33.65857000,150.81079000
Australia,New South Wales,Wingecarribee,-34.49091000,150.35486000
Australia,New South Wales,Wingham,-31.86676000,152.36989000
Australia,New South Wales,Winmalee,-33.67847000,150.61213000
Australia,New South Wales,Winston Hills,-33.77645000,150.98051000
Australia,New South Wales,Wolli Creek,-33.93133000,151.15222000
Australia,New South Wales,Wollondilly,-34.06958000,150.46265000
Australia,New South Wales,Wollongbar,-28.81820000,153.39686000
Australia,New South Wales,Wollongong,-34.42400000,150.89345000
Australia,New South Wales,Wollongong city centre,-34.42790000,150.89268000
Australia,New South Wales,Wollstonecraft,-33.83280000,151.18981000
Australia,New South Wales,Woodberry,-32.79311000,151.67687000
Australia,New South Wales,Woodbine,-34.04589000,150.82146000
Australia,New South Wales,Woodcroft,-33.75637000,150.88071000
Australia,New South Wales,Woodford,-33.73333000,150.48333000
Australia,New South Wales,Woodpark,-33.84137000,150.96055000
Australia,New South Wales,Woodrising,-32.98595000,151.60657000
Australia,New South Wales,Woolgoolga,-30.11058000,153.20067000
Australia,New South Wales,Woollahra,-33.87901000,151.24706000
Australia,New South Wales,Woolloomooloo,-33.87042000,151.21968000
Australia,New South Wales,Woolooware,-34.04583000,151.14312000
Australia,New South Wales,Woongarrah,-33.24134000,151.47563000
Australia,New South Wales,Woonona,-34.34932000,150.91443000
Australia,New South Wales,Woronora,-34.02436000,151.03862000
Australia,New South Wales,Woronora Heights,-34.03562000,151.02734000
Australia,New South Wales,Worrigee,-34.90000000,150.63333000
Australia,New South Wales,Woy Woy,-33.48433000,151.32471000
Australia,New South Wales,Wyee,-33.18252000,151.48804000
Australia,New South Wales,Wyee Point,-33.14585000,151.50783000
Australia,New South Wales,Wyoming,-33.40387000,151.36254000
Australia,New South Wales,Wyong,-33.28254000,151.42327000
Australia,New South Wales,Wyongah,-33.27468000,151.48898000
Australia,New South Wales,Yagoona,-33.90490000,151.01996000
Australia,New South Wales,Yallah,-34.53375780,150.77768450
Australia,New South Wales,Yamba,-29.43750000,153.35914000
Australia,New South Wales,Yarravel,-31.04295000,152.76191000
Australia,New South Wales,Yarrawarrah,-34.05351000,151.03563000
Australia,New South Wales,Yass,-34.84036000,148.90987000
Australia,New South Wales,Yass Valley,-34.92630000,148.97240000
Australia,New South Wales,Yenda,-34.24525000,146.20273000
Australia,New South Wales,Yennora,-33.86173000,150.96865000
Australia,New South Wales,Yerrinbool,-34.36884000,150.53848000
Australia,New South Wales,Yoogali,-34.29944000,146.08443000
Australia,New South Wales,Young,-34.31350000,148.30107000
Australia,New South Wales,Yowie Bay,-34.05116000,151.10228000
Australia,New South Wales,Zetland,-33.90748000,151.20857000
Australia,Northern Territory,Alawa,-12.37954000,130.87320000
Australia,Northern Territory,Alice Springs,-23.69748000,133.88362000
Australia,Northern Territory,Alyangula,-13.85413000,136.42129000
Australia,Northern Territory,Anula,-12.39125000,130.89047000
Australia,Northern Territory,Araluen,-23.69601000,133.85400000
Australia,Northern Territory,Bakewell,-12.49684000,130.99344000
Australia,Northern Territory,Barkly,-19.54154000,134.82364000
Australia,Northern Territory,Bellamack,-12.51707000,130.98355000
Australia,Northern Territory,Belyuen,-12.53819000,130.68317000
Australia,Northern Territory,Berrimah,-12.43507000,130.92606000
Australia,Northern Territory,Braitling,-23.68005000,133.86877000
Australia,Northern Territory,Brinkin,-12.37057000,130.86799000
Australia,Northern Territory,Central Desert,-21.07203000,133.49949000
Australia,Northern Territory,Coconut Grove,-12.39602000,130.85186000
Australia,Northern Territory,Coomalie,-13.04322000,131.08427000
Australia,Northern Territory,Cossack,-14.45551000,132.17482000
Australia,Northern Territory,Darwin,-12.46113000,130.84185000
Australia,Northern Territory,Desert Springs,-23.71554000,133.88768000
Australia,Northern Territory,Driver,-12.48602000,130.97539000
Australia,Northern Territory,Durack,-12.47308000,130.97208000
Australia,Northern Territory,East Arnhem,-12.66175000,135.82281000
Australia,Northern Territory,East Side,-23.69195000,133.89320000
Australia,Northern Territory,Fannie Bay,-12.42275000,130.83627000
Australia,Northern Territory,Farrar,-12.48028000,130.99820000
Australia,Northern Territory,Galiwinku,-12.02811000,135.56486000
Australia,Northern Territory,Gillen,-23.70915000,133.86596000
Australia,Northern Territory,Girraween,-12.52528000,131.09566000
Australia,Northern Territory,Gray,-12.49036000,130.98228000
Australia,Northern Territory,Gunbalanya,-12.32474000,133.05087000
Australia,Northern Territory,Gunn,-12.48765000,130.99322000
Australia,Northern Territory,Herbert,-12.53414000,131.16197000
Australia,Northern Territory,Holtze,-12.44850000,131.00556000
Australia,Northern Territory,Howard Springs,-12.49576000,131.04446000
Australia,Northern Territory,Humpty Doo,-12.58406000,131.13674000
Australia,Northern Territory,Jabiru,-12.67049000,132.83604000
Australia,Northern Territory,Jingili,-12.38895000,130.87281000
Australia,Northern Territory,Johnston,-12.48764000,131.01169000
Australia,Northern Territory,Karama,-12.40219000,130.91600000
Australia,Northern Territory,Katherine,-14.65012000,132.17414000
Australia,Northern Territory,Katherine East,-14.46597000,132.28556000
Australia,Northern Territory,Katherine South,-14.46784000,132.25848000
Australia,Northern Territory,Larapinta,-23.69303000,133.83137000
Australia,Northern Territory,Larrakeyah,-12.45527000,130.83172000
Australia,Northern Territory,Leanyer,-12.36667000,130.90000000
Australia,Northern Territory,Litchfield,-12.50228000,131.12785000
Australia,Northern Territory,Ludmilla,-12.42032000,130.85506000
Australia,Northern Territory,Lyons,-12.35912000,130.88852000
Australia,Northern Territory,MacDonnell,-24.42671000,133.49982000
Australia,Northern Territory,Malak,-12.39288000,130.90395000
Australia,Northern Territory,Maningrida,-12.04830000,134.22941000
Australia,Northern Territory,Marrara,-12.40041000,130.89290000
Australia,Northern Territory,Milingimbi,-12.10188000,134.91901000
Australia,Northern Territory,Millner,-12.39186000,130.86252000
Australia,Northern Territory,Moil,-12.38850000,130.88088000
Australia,Northern Territory,Moulden,-12.50559000,130.97313000
Australia,Northern Territory,Muirhead,-12.35863000,130.89352000
Australia,Northern Territory,Nakara,-12.37054000,130.87728000
Australia,Northern Territory,Ngukurr,-14.73081000,134.73102000
Australia,Northern Territory,Nhulunbuy,-12.18165000,136.77841000
Australia,Northern Territory,Nightcliff,-12.38299000,130.85170000
Australia,Northern Territory,Palmerston,-12.49620000,130.97797000
Australia,Northern Territory,Parap,-12.43054000,130.84142000
Australia,Northern Territory,Rapid Creek,-12.38042000,130.85919000
Australia,Northern Territory,Roper Gulf,-15.30564000,134.97356000
Australia,Northern Territory,Rosebery,-12.51046000,130.98780000
Australia,Northern Territory,Ross,-23.74424000,133.90358000
Australia,Northern Territory,Sadadeen,-23.70399000,133.90043000
Australia,Northern Territory,Stuart Park,-12.44860000,130.84249000
Australia,Northern Territory,Tennant Creek,-19.64970000,134.19147000
Australia,Northern Territory,The Gap,-23.71333000,133.87386000
Australia,Northern Territory,Tiwi,-12.35876000,130.87800000
Australia,Northern Territory,Tiwi Islands,-11.55324000,130.78178000
Australia,Northern Territory,Victoria Daly,-15.92920000,130.76166000
Australia,Northern Territory,Virginia,-12.51895000,131.02844000
Australia,Northern Territory,Wadeye,-14.23834000,129.52177000
Australia,Northern Territory,Wagait,-12.44161000,130.75370000
Australia,Northern Territory,Wagaman,-12.38074000,130.88538000
Australia,Northern Territory,Wanguri,-12.37129000,130.88815000
Australia,Northern Territory,West Arnhem,-12.38723000,133.37935000
Australia,Northern Territory,Woodroffe,-12.50173000,130.98016000
Australia,Northern Territory,Wulagi,-12.38345000,130.89543000
Australia,Northern Territory,Wurrumiyanga,-11.76082000,130.62555000
Australia,Northern Territory,Yulara,-25.24060000,130.98890000
Australia,Northern Territory,Zuccoli,-12.50727000,131.00694000
Australia,Queensland,Acacia Ridge,-27.58333000,153.03333000
Australia,Queensland,Agnes Water,-24.21190000,151.90350000
Australia,Queensland,Airlie Beach,-20.26751000,148.71471000
Australia,Queensland,Aitkenvale,-19.30142000,146.77082000
Australia,Queensland,Albany Creek,-27.35364000,152.96848000
Australia,Queensland,Alderley,-27.42553000,153.00102000
Australia,Queensland,Aldershot,-25.46312000,152.66348000
Australia,Queensland,Alexandra Headland,-26.67154000,153.10058000
Australia,Queensland,Alexandra Hills,-27.53221000,153.22889000
Australia,Queensland,Algester,-27.61279000,153.03239000
Australia,Queensland,Alice River,-19.33437000,146.61391000
Australia,Queensland,Allenstown,-23.39403000,150.50393000
Australia,Queensland,Alligator Creek,-19.39176000,146.93784000
Australia,Queensland,Allora,-28.03484000,151.98058000
Australia,Queensland,Alton Downs,-23.30000000,150.35000000
Australia,Queensland,Andergrove,-21.08333000,149.18333000
Australia,Queensland,Annandale,-19.31503000,146.79069000
Australia,Queensland,Annerley,-27.51228000,153.03248000
Australia,Queensland,Anstead,-27.53781000,152.86187000
Australia,Queensland,Arana Hills,-27.39808000,152.95797000
Australia,Queensland,Aroona,-26.78173000,153.11652000
Australia,Queensland,Arundel,-27.93768000,153.36302000
Australia,Queensland,Ascot,-27.43154000,153.05800000
Australia,Queensland,Ashgrove,-27.44552000,152.99200000
Australia,Queensland,Ashmore,-27.98883000,153.37647000
Australia,Queensland,Aspley,-27.36667000,153.01667000
Australia,Queensland,Atherton,-17.26864000,145.47522000
Australia,Queensland,Auchenflower,-27.47443000,152.99213000
Australia,Queensland,Augustine Heights,-27.66047000,152.87896000
Australia,Queensland,Aurukun,-13.51263000,141.82435000
Australia,Queensland,Avenell Heights,-24.88960000,152.36786000
Australia,Queensland,Avoca,-24.87822000,152.30794000
Australia,Queensland,Ayr,-19.57393000,147.40666000
Australia,Queensland,Babinda,-17.34390000,145.92265000
Australia,Queensland,Bahrs Scrub,-27.73333000,153.16667000
Australia,Queensland,Bakers Creek,-21.21990000,149.14681000
Australia,Queensland,Bald Hills,-27.32112000,153.00857000
Australia,Queensland,Balmoral,-27.45341000,153.06680000
Australia,Queensland,Balonne Shire,-28.28481000,148.17933000
Australia,Queensland,Bamaga,-10.89197000,142.38934000
Australia,Queensland,Banana,-24.80653000,149.89838000
Australia,Queensland,Banksia Beach,-27.04027000,153.14390000
Australia,Queensland,Banyo,-27.38236000,153.07903000
Australia,Queensland,Barcaldine,-23.05203000,145.43490000
Australia,Queensland,Barcoo,-25.17292000,142.46481000
Australia,Queensland,Bardon,-27.46100000,152.97920000
Australia,Queensland,Barellan Point,-27.57196000,152.84379000
Australia,Queensland,Bargara,-24.81476000,152.46257000
Australia,Queensland,Barney Point,-23.84793000,151.26577000
Australia,Queensland,Battery Hill,-26.77878000,153.12887000
Australia,Queensland,Bayview Heights,-16.96229000,145.72585000
Australia,Queensland,Beachmere,-27.12808000,153.05243000
Australia,Queensland,Beaconsfield,-21.09121000,149.16544000
Australia,Queensland,Beaudesert,-27.98691000,152.99657000
Australia,Queensland,Beenleigh,-27.71137000,153.20290000
Australia,Queensland,Beerwah,-26.85881000,152.96144000
Australia,Queensland,Belgian Gardens,-19.24507000,146.79455000
Australia,Queensland,Bellara,-27.06392000,153.14959000
Australia,Queensland,Bellbird Park,-27.63674000,152.88663000
Australia,Queensland,Bellbowrie,-27.55939000,152.88278000
Australia,Queensland,Bellmere,-27.08441000,152.89003000
Australia,Queensland,Belmont,-27.49882000,153.13400000
Australia,Queensland,Benaraby,-24.00417000,151.33410000
Australia,Queensland,Benowa,-28.00770000,153.38583000
Australia,Queensland,Bentley Park,-17.00389000,145.73819000
Australia,Queensland,Berrinba,-27.65853000,153.07888000
Australia,Queensland,Berserker,-23.35817000,150.52042000
Australia,Queensland,Biggera Waters,-27.93239000,153.40021000
Australia,Queensland,Bilinga,-28.16667000,153.51667000
Australia,Queensland,Biloela,-24.39589000,150.51504000
Australia,Queensland,Birkdale,-27.48333000,153.21667000
Australia,Queensland,Birtinya,-26.74322000,153.11913000
Australia,Queensland,Black Mountain,-26.39886000,152.87561000
Australia,Queensland,Black River,-19.22517000,146.61787000
Australia,Queensland,Blackall,-24.42327000,145.46303000
Australia,Queensland,Blackall Tambo,-24.78795000,145.97279000
Australia,Queensland,Blacks Beach,-21.05466000,149.18971000
Australia,Queensland,Blackwater,-23.58351000,148.87912000
Australia,Queensland,Bli Bli,-26.61724000,153.03665000
Australia,Queensland,Bluewater,-19.18157000,146.55820000
Australia,Queensland,Bohle Plains,-19.31365000,146.69186000
Australia,Queensland,Bokarina,-26.73843000,153.13049000
Australia,Queensland,Bongaree,-27.08367000,153.15942000
Australia,Queensland,Bonogin,-28.13930000,153.35297000
Australia,Queensland,Booie,-26.53677000,151.94181000
Australia,Queensland,Boonah,-27.99724000,152.68108000
Australia,Queensland,Boondall,-27.35317000,153.06092000
Australia,Queensland,Booral,-25.36048000,152.90810000
Australia,Queensland,Booval,-27.61328000,152.78944000
Australia,Queensland,Boronia Heights,-27.68855000,153.01959000
Australia,Queensland,Bouldercombe,-23.57054000,150.46951000
Australia,Queensland,Boulia,-22.27908000,139.62534000
Australia,Queensland,Bowen,-20.01367000,148.24754000
Australia,Queensland,Bowen Hills,-27.44369000,153.03728000
Australia,Queensland,Boyne Island,-23.94829000,151.35336000
Australia,Queensland,Bracken Ridge,-27.31710000,153.03097000
Australia,Queensland,Brandon,-19.55389000,147.35304000
Australia,Queensland,Branyan,-24.91347000,152.27251000
Australia,Queensland,Brassall,-27.59753000,152.74755000
Australia,Queensland,Bray Park,-27.29246000,152.96783000
Australia,Queensland,Brendale,-27.32114000,152.98393000
Australia,Queensland,Bridgeman Downs,-27.35538000,152.99432000
Australia,Queensland,Brighton,-27.29582000,153.05721000
Australia,Queensland,Brinsmead,-16.89921000,145.71554000
Australia,Queensland,Brisbane,-27.46794000,153.02809000
Australia,Queensland,Broadbeach,-28.02782000,153.43343000
Australia,Queensland,Broadbeach Waters,-28.03498000,153.42502000
Australia,Queensland,Brookfield,-27.50000000,152.90000000
Australia,Queensland,Brookwater,-27.66128000,152.89669000
Australia,Queensland,Bucasia,-21.03494000,149.15726000
Australia,Queensland,Bucca,-24.86667000,152.10000000
Australia,Queensland,Buccan,-27.75000000,153.13333000
Australia,Queensland,Buddina,-26.69565000,153.13302000
Australia,Queensland,Buderim,-26.68443000,153.05705000
Australia,Queensland,Bulimba,-27.44990000,153.05766000
Australia,Queensland,Bulloo,-27.83079000,142.91280000
Australia,Queensland,Bundaberg,-24.97305000,151.98442000
Australia,Queensland,Bundaberg East,-24.85860000,152.38003000
Australia,Queensland,Bundaberg North,-24.84914000,152.34638000
Australia,Queensland,Bundaberg South,-24.87277000,152.35986000
Australia,Queensland,Bundaberg West,-24.87265000,152.33647000
Australia,Queensland,Bundall,-28.01111000,153.40479000
Australia,Queensland,Bundamba,-27.60947000,152.81133000
Australia,Queensland,Bungalow,-16.93855000,145.75634000
Australia,Queensland,Bunya,-27.36940000,152.94331000
Australia,Queensland,Burbank,-27.55584000,153.14701000
Australia,Queensland,Burdekin,-19.84934000,147.27239000
Australia,Queensland,Burdell,-19.25056000,146.69877000
Australia,Queensland,Burke,-18.06461000,139.03748000
Australia,Queensland,Burleigh Heads,-28.10000000,153.45000000
Australia,Queensland,Burleigh Waters,-28.09975000,153.42463000
Australia,Queensland,Burnett Heads,-24.76468000,152.41270000
Australia,Queensland,Burnside,-26.63255000,152.94063000
Australia,Queensland,Burpengary,-27.15746000,152.95758000
Australia,Queensland,Burpengary East,-27.14447000,152.99968000
Australia,Queensland,Burrum Heads,-25.18457000,152.61263000
Australia,Queensland,Bushland Beach,-19.19134000,146.67682000
Australia,Queensland,Cabarlah,-27.43333000,152.00000000
Australia,Queensland,Caboolture,-27.08465000,152.95110000
Australia,Queensland,Caboolture South,-27.09389000,152.94874000
Australia,Queensland,Cairns,-16.90268000,145.75287000
