country,state,city,latitude,longitude
United States,Alabama,Abbeville,31.57184000,-85.25049000
United States,Alabama,Adamsville,33.60094000,-86.95611000
United States,Alabama,Alabaster,33.24428000,-86.81638000
United States,Alabama,Albertville,34.26783000,-86.20878000
United States,Alabama,Alexander City,32.94401000,-85.95385000
United States,Alabama,Alexandria,33.77399000,-85.88552000
United States,Alabama,Aliceville,33.12957000,-88.15142000
United States,Alabama,Andalusia,31.30808000,-86.48243000
United States,Alabama,Anniston,33.65983000,-85.83163000
United States,Alabama,Arab,34.31815000,-86.49582000
United States,Alabama,Argo,33.68778000,-86.50051000
United States,Alabama,Ashford,31.18296000,-85.23632000
United States,Alabama,Ashland,33.27373000,-85.83607000
United States,Alabama,Ashville,33.83704000,-86.25442000
United States,Alabama,Athens,34.80243000,-86.97219000
United States,Alabama,Atmore,31.02379000,-87.49387000
United States,Alabama,Attalla,34.02176000,-86.08859000
United States,Alabama,Auburn,32.60986000,-85.48078000
United States,Alabama,Autauga County,32.53492000,-86.64276000
United States,Alabama,Baldwin County,30.66097000,-87.74984000
United States,Alabama,Ballplay,34.05871000,-85.80802000
United States,Alabama,Barbour County,31.86960000,-85.39320000
United States,Alabama,Bay Minette,30.88296000,-87.77305000
United States,Alabama,Bayou La Batre,30.40352000,-88.24852000
United States,Alabama,Bear Creek,34.27482000,-87.70058000
United States,Alabama,Berry,33.65983000,-87.60001000
United States,Alabama,Bessemer,33.40178000,-86.95444000
United States,Alabama,Bibb County,32.99864000,-87.12644000
United States,Alabama,Birmingham,33.52066000,-86.80249000
United States,Alabama,Blount County,33.98087000,-86.56737000
United States,Alabama,Blountsville,34.08149000,-86.59110000
United States,Alabama,Blue Ridge,32.49264000,-86.19052000
United States,Alabama,Boaz,34.20065000,-86.16637000
United States,Alabama,Brent,32.93735000,-87.16472000
United States,Alabama,Brewton,31.10518000,-87.07219000
United States,Alabama,Bridgeport,34.94758000,-85.71442000
United States,Alabama,Brighton,33.43428000,-86.94721000
United States,Alabama,Brook Highland,33.43566000,-86.67388000
United States,Alabama,Brookside,33.63788000,-86.91666000
United States,Alabama,Brookwood,33.25567000,-87.32083000
United States,Alabama,Brundidge,31.72016000,-85.81606000
United States,Alabama,Bullock County,32.10055000,-85.71570000
United States,Alabama,Butler,32.08959000,-88.22197000
United States,Alabama,Butler County,31.75243000,-86.68029000
United States,Alabama,Bynum,33.61316000,-85.96108000
United States,Alabama,Cahaba Heights,33.46400000,-86.73193000
United States,Alabama,Calera,33.10290000,-86.75360000
United States,Alabama,Calhoun County,33.77143000,-85.82603000
United States,Alabama,Camden,31.99098000,-87.29055000
United States,Alabama,Carbon Hill,33.89177000,-87.52612000
United States,Alabama,Carlisle-Rockledge,34.11445000,-86.12407000
United States,Alabama,Carrollton,33.26169000,-88.09503000
United States,Alabama,Cedar Bluff,34.22009000,-85.60774000
United States,Alabama,Center Point,33.64566000,-86.68360000
United States,Alabama,Centre,34.15204000,-85.67885000
United States,Alabama,Centreville,32.94620000,-87.11669000
United States,Alabama,Chalkville,33.65316000,-86.64777000
United States,Alabama,Chambers County,32.91437000,-85.39204000
United States,Alabama,Chatom,31.46517000,-88.25446000
United States,Alabama,Chelsea,33.34011000,-86.63026000
United States,Alabama,Cherokee,34.75703000,-87.97281000
United States,Alabama,Cherokee County,34.17596000,-85.60379000
United States,Alabama,Chickasaw,30.76380000,-88.07472000
United States,Alabama,Childersburg,33.27817000,-86.35498000
United States,Alabama,Chilton County,32.84785000,-86.71881000
United States,Alabama,Choccolocco,33.65927000,-85.70357000
United States,Alabama,Choctaw County,32.01961000,-88.26320000
United States,Alabama,Citronelle,31.09073000,-88.22806000
United States,Alabama,Clanton,32.83874000,-86.62943000
United States,Alabama,Clarke County,31.67666000,-87.83081000
United States,Alabama,Clay,33.70260000,-86.59971000
United States,Alabama,Clay County,33.26909000,-85.86055000
United States,Alabama,Clayton,31.87822000,-85.44966000
United States,Alabama,Cleburne County,33.67456000,-85.51877000
United States,Alabama,Cleveland,33.99093000,-86.57749000
United States,Alabama,Clio,31.70878000,-85.61050000
United States,Alabama,Coaling,33.15901000,-87.34083000
United States,Alabama,Coffee County,31.40263000,-85.98821000
United States,Alabama,Colbert County,34.70043000,-87.80498000
United States,Alabama,Collinsville,34.26398000,-85.86053000
United States,Alabama,Columbiana,33.17817000,-86.60721000
United States,Alabama,Concord,33.46761000,-87.03111000
United States,Alabama,Conecuh County,31.42927000,-86.99368000
United States,Alabama,Coosa County,32.93623000,-86.24766000
United States,Alabama,Coosada,32.49791000,-86.33136000
United States,Alabama,Cordova,33.75983000,-87.18333000
United States,Alabama,Cottonwood,31.04879000,-85.30493000
United States,Alabama,Covington County,31.24849000,-86.45125000
United States,Alabama,Cowarts,31.20018000,-85.30465000
United States,Alabama,Crenshaw County,31.73149000,-86.31355000
United States,Alabama,Creola,30.89185000,-88.03972000
United States,Alabama,Crossville,34.28759000,-85.99414000
United States,Alabama,Cullman,34.17482000,-86.84361000
United States,Alabama,Cullman County,34.13194000,-86.86762000
United States,Alabama,Dadeville,32.83124000,-85.76357000
United States,Alabama,Dale County,31.43182000,-85.61103000
United States,Alabama,Daleville,31.31017000,-85.71299000
United States,Alabama,Dallas County,32.32597000,-87.10648000
United States,Alabama,Danville,34.41454000,-87.08751000
United States,Alabama,Daphne,30.60353000,-87.90360000
United States,Alabama,Dauphin Island,30.25548000,-88.10972000
United States,Alabama,Deatsville,32.60819000,-86.39581000
United States,Alabama,Decatur,34.60593000,-86.98334000
United States,Alabama,DeKalb County,34.45977000,-85.80414000
United States,Alabama,Demopolis,32.51764000,-87.83640000
United States,Alabama,Dixiana,33.74021000,-86.64938000
United States,Alabama,Dora,33.72872000,-87.09028000
United States,Alabama,Dothan,31.22323000,-85.39049000
United States,Alabama,Double Springs,34.14637000,-87.40247000
United States,Alabama,East Brewton,31.09323000,-87.06275000
United States,Alabama,East Florence,34.80953000,-87.64947000
United States,Alabama,Eclectic,32.63541000,-86.03441000
United States,Alabama,Elba,31.41461000,-86.06772000
United States,Alabama,Elberta,30.41436000,-87.59776000
United States,Alabama,Elmore,32.53874000,-86.31497000
United States,Alabama,Elmore County,32.59665000,-86.14915000
United States,Alabama,Emerald Mountain,32.44793000,-86.09429000
United States,Alabama,Enterprise,31.31517000,-85.85522000
United States,Alabama,Escambia County,31.12612000,-87.16162000
United States,Alabama,Etowah County,34.04525000,-86.03476000
United States,Alabama,Eufaula,31.89127000,-85.14549000
United States,Alabama,Eutaw,32.84059000,-87.88762000
United States,Alabama,Evergreen,31.43350000,-86.95692000
United States,Alabama,Fairfield,33.48594000,-86.91194000
United States,Alabama,Fairhope,30.52297000,-87.90333000
United States,Alabama,Falkville,34.36843000,-86.90862000
United States,Alabama,Fayette,33.68455000,-87.83085000
United States,Alabama,Fayette County,33.72121000,-87.73886000
United States,Alabama,Fayetteville,33.14567000,-86.40581000
United States,Alabama,Flint City,34.52315000,-86.97029000
United States,Alabama,Flomaton,31.00018000,-87.26081000
United States,Alabama,Florala,31.00518000,-86.32800000
United States,Alabama,Florence,34.79981000,-87.67725000
United States,Alabama,Foley,30.40659000,-87.68360000
United States,Alabama,Forestdale,33.57011000,-86.89638000
United States,Alabama,Fort Deposit,31.98459000,-86.57859000
United States,Alabama,Fort Payne,34.44425000,-85.71969000
United States,Alabama,Fort Rucker,31.34282000,-85.71538000
United States,Alabama,Franklin County,34.44167000,-87.84381000
United States,Alabama,Frisco City,31.43350000,-87.40138000
United States,Alabama,Fultondale,33.60483000,-86.79388000
United States,Alabama,Fyffe,34.44676000,-85.90414000
United States,Alabama,Gadsden,34.01434000,-86.00639000
United States,Alabama,Gardendale,33.66010000,-86.81277000
United States,Alabama,Geneva,31.03296000,-85.86382000
United States,Alabama,Geneva County,31.09502000,-85.83898000
United States,Alabama,Georgiana,31.63710000,-86.74192000
United States,Alabama,Glencoe,33.95704000,-85.93247000
United States,Alabama,Good Hope,34.11593000,-86.86361000
United States,Alabama,Goodwater,33.06567000,-86.05330000
United States,Alabama,Gordo,33.32012000,-87.90280000
United States,Alabama,Grand Bay,30.47631000,-88.34223000
United States,Alabama,Grayson Valley,33.64816000,-86.63943000
United States,Alabama,Graysville,33.62066000,-86.97138000
United States,Alabama,Greene County,32.85314000,-87.95223000
United States,Alabama,Greensboro,32.70415000,-87.59550000
United States,Alabama,Greenville,31.82960000,-86.61775000
United States,Alabama,Grove Hill,31.70877000,-87.77722000
United States,Alabama,Guin,33.96566000,-87.91475000
United States,Alabama,Gulf Shores,30.24604000,-87.70082000
United States,Alabama,Guntersville,34.35823000,-86.29446000
United States,Alabama,Hackleburg,34.27732000,-87.82864000
United States,Alabama,Hale County,32.76266000,-87.62912000
United States,Alabama,Haleyville,34.22649000,-87.62141000
United States,Alabama,Hamilton,34.14232000,-87.98864000
United States,Alabama,Hanceville,34.06065000,-86.76750000
United States,Alabama,Harpersville,33.34400000,-86.43804000
United States,Alabama,Hartford,31.10240000,-85.69688000
United States,Alabama,Hartselle,34.44343000,-86.93528000
United States,Alabama,Harvest,34.85564000,-86.75083000
United States,Alabama,Hayden,33.89260000,-86.75777000
United States,Alabama,Hayneville,32.18403000,-86.58025000
United States,Alabama,Hazel Green,34.93231000,-86.57194000
United States,Alabama,Headland,31.35128000,-85.34216000
United States,Alabama,Heflin,33.64899000,-85.58746000
United States,Alabama,Helena,33.29622000,-86.84360000
United States,Alabama,Henagar,34.63508000,-85.76719000
United States,Alabama,Henry County,31.51469000,-85.24141000
United States,Alabama,Highland Lakes,33.39838000,-86.65130000
United States,Alabama,Hokes Bluff,33.99815000,-85.86636000
United States,Alabama,Holt,33.23401000,-87.48445000
United States,Alabama,Holtville,32.63624000,-86.32664000
United States,Alabama,Homewood,33.47177000,-86.80082000
United States,Alabama,Hoover,33.40539000,-86.81138000
United States,Alabama,Houston County,31.15318000,-85.30252000
United States,Alabama,Hueytown,33.45122000,-86.99666000
United States,Alabama,Huguley,32.83457000,-85.22966000
United States,Alabama,Huntsville,34.73040000,-86.58594000
United States,Alabama,Indian Springs Village,33.35539000,-86.75443000
United States,Alabama,Inverness,32.01488000,-85.74606000
United States,Alabama,Irondale,33.53816000,-86.70721000
United States,Alabama,Jackson,31.50905000,-87.89444000
United States,Alabama,Jackson County,34.77941000,-85.99930000
United States,Alabama,Jacksonville,33.81382000,-85.76130000
United States,Alabama,Jasper,33.83122000,-87.27751000
United States,Alabama,Jefferson County,33.55431000,-86.89649000
United States,Alabama,Jemison,32.95985000,-86.74665000
United States,Alabama,Kimberly,33.77344000,-86.81388000
United States,Alabama,Kinsey,31.29906000,-85.34438000
United States,Alabama,Ladonia,32.46820000,-85.07910000
United States,Alabama,Lafayette,32.89985000,-85.40106000
United States,Alabama,Lake Purdy,33.43011000,-86.68054000
United States,Alabama,Lake View,33.28067000,-87.13750000
United States,Alabama,Lamar County,33.77921000,-88.09690000
United States,Alabama,Lanett,32.86874000,-85.19050000
United States,Alabama,Lauderdale County,34.90137000,-87.65400000
United States,Alabama,Lawrence County,34.52165000,-87.31104000
United States,Alabama,Lee County,32.60114000,-85.35556000
United States,Alabama,Leeds,33.54816000,-86.54443000
United States,Alabama,Leesburg,34.17982000,-85.76136000
United States,Alabama,Level Plains,31.29962000,-85.77799000
United States,Alabama,Limestone County,34.81008000,-86.98137000
United States,Alabama,Lincoln,33.61316000,-86.11831000
United States,Alabama,Linden,32.30625000,-87.79807000
United States,Alabama,Lineville,33.31067000,-85.75441000
United States,Alabama,Lipscomb,33.42566000,-86.92666000
United States,Alabama,Livingston,32.58430000,-88.18725000
United States,Alabama,Locust Fork,33.90760000,-86.61527000
United States,Alabama,Lowndes County,32.15475000,-86.65011000
United States,Alabama,Loxley,30.61825000,-87.75305000
United States,Alabama,Luverne,31.71655000,-86.26385000
United States,Alabama,Macon County,32.38597000,-85.69267000
United States,Alabama,Madison,34.69926000,-86.74833000
United States,Alabama,Madison County,34.76309000,-86.55021000
United States,Alabama,Malvern,31.13934000,-85.51910000
United States,Alabama,Marbury,32.70124000,-86.47109000
United States,Alabama,Marengo County,32.24761000,-87.78952000
United States,Alabama,Margaret,33.68621000,-86.47498000
United States,Alabama,Marion,32.63235000,-87.31917000
United States,Alabama,Marion County,34.13655000,-87.88714000
United States,Alabama,Marshall County,34.36696000,-86.30664000
United States,Alabama,Meadowbrook,33.40205000,-86.69665000
United States,Alabama,Meridianville,34.85148000,-86.57222000
United States,Alabama,Midfield,33.46150000,-86.90888000
United States,Alabama,Midland City,31.31906000,-85.49382000
United States,Alabama,Mignon,33.18345000,-86.26109000
United States,Alabama,Millbrook,32.47986000,-86.36192000
United States,Alabama,Minor,33.53733000,-86.94055000
United States,Alabama,Mobile,30.69436000,-88.04305000
United States,Alabama,Mobile County,30.68515000,-88.19753000
United States,Alabama,Monroe County,31.57084000,-87.36543000
United States,Alabama,Monroeville,31.52794000,-87.32471000
United States,Alabama,Montevallo,33.10067000,-86.86416000
United States,Alabama,Montgomery,32.36681000,-86.29997000
United States,Alabama,Montgomery County,32.22026000,-86.20761000
United States,Alabama,Moody,33.59094000,-86.49082000
United States,Alabama,Moores Mill,34.84398000,-86.51832000
United States,Alabama,Morgan County,34.45347000,-86.85293000
United States,Alabama,Morris,33.74816000,-86.80860000
United States,Alabama,Moulton,34.48121000,-87.29335000
United States,Alabama,Moundville,32.99762000,-87.63001000
United States,Alabama,Mount Olive,33.67094000,-86.85610000
United States,Alabama,Mount Vernon,31.08518000,-88.01333000
United States,Alabama,Mountain Brook,33.50094000,-86.75221000
United States,Alabama,Munford,33.52983000,-85.95080000
United States,Alabama,Muscle Shoals,34.74481000,-87.66753000
United States,Alabama,New Brockton,31.38572000,-85.92939000
United States,Alabama,New Hope,34.53712000,-86.39426000
United States,Alabama,New Market,34.91003000,-86.42779000
United States,Alabama,Newton,31.33517000,-85.60521000
United States,Alabama,North Bibb,33.20401000,-87.15305000
United States,Alabama,Northport,33.22901000,-87.57723000
United States,Alabama,Odenville,33.67732000,-86.39665000
United States,Alabama,Ohatchee,33.78343000,-86.00247000
United States,Alabama,Oneonta,33.94815000,-86.47276000
United States,Alabama,Opelika,32.64541000,-85.37828000
United States,Alabama,Opp,31.28267000,-86.25551000
United States,Alabama,Orange Beach,30.29437000,-87.57359000
United States,Alabama,Owens Cross Roads,34.58815000,-86.45888000
United States,Alabama,Oxford,33.61427000,-85.83496000
United States,Alabama,Ozark,31.45906000,-85.64049000
United States,Alabama,Pelham,33.28567000,-86.80999000
United States,Alabama,Pell City,33.58621000,-86.28609000
United States,Alabama,Perry County,32.63847000,-87.29440000
United States,Alabama,Phenix City,32.47098000,-85.00077000
United States,Alabama,Phil Campbell,34.35093000,-87.70642000
United States,Alabama,Pickens County,33.28088000,-88.08869000
United States,Alabama,Piedmont,33.92455000,-85.61135000
United States,Alabama,Pike County,31.80272000,-85.94092000
United States,Alabama,Pike Road,32.28431000,-86.10302000
United States,Alabama,Pine Level,32.58374000,-86.46553000
United States,Alabama,Pinson,33.68899000,-86.68332000
United States,Alabama,Pleasant Grove,33.49094000,-86.97027000
United States,Alabama,Point Clear,30.47408000,-87.91916000
United States,Alabama,Prattville,32.46402000,-86.45970000
United States,Alabama,Priceville,34.52509000,-86.89473000
United States,Alabama,Prichard,30.73880000,-88.07889000
United States,Alabama,Ragland,33.74454000,-86.15581000
United States,Alabama,Rainbow City,33.95482000,-86.04192000
United States,Alabama,Rainsville,34.49425000,-85.84775000
United States,Alabama,Randolph County,33.29379000,-85.45907000
United States,Alabama,Red Bay,34.43982000,-88.14087000
United States,Alabama,Redstone Arsenal,34.68387000,-86.64764000
United States,Alabama,Reform,33.37845000,-88.01530000
United States,Alabama,Rehobeth,31.12296000,-85.45271000
United States,Alabama,Riverside,33.60621000,-86.20442000
United States,Alabama,Roanoke,33.15123000,-85.37217000
United States,Alabama,Robertsdale,30.55380000,-87.71193000
United States,Alabama,Rock Creek,33.47705000,-87.08027000
United States,Alabama,Rockford,32.88957000,-86.21969000
United States,Alabama,Rogersville,34.82578000,-87.29676000
United States,Alabama,Russell County,32.28838000,-85.18496000
United States,Alabama,Russellville,34.50787000,-87.72864000
United States,Alabama,Saint Clair County,33.71570000,-86.31469000
United States,Alabama,Saks,33.69871000,-85.83969000
United States,Alabama,Samson,31.11295000,-86.04605000
United States,Alabama,Saraland,30.82074000,-88.07056000
United States,Alabama,Sardis City,34.17426000,-86.12275000
United States,Alabama,Satsuma,30.85324000,-88.05611000
United States,Alabama,Scottsboro,34.67231000,-86.03415000
United States,Alabama,Selma,32.40736000,-87.02110000
United States,Alabama,Selmont-West Selmont,32.37843000,-87.00740000
United States,Alabama,Semmes,30.77824000,-88.25917000
United States,Alabama,Sheffield,34.76509000,-87.69864000
United States,Alabama,Shelby,33.11040000,-86.58415000
United States,Alabama,Shelby County,33.26428000,-86.66065000
United States,Alabama,Shoal Creek,33.43076000,-86.61092000
United States,Alabama,Slocomb,31.10823000,-85.59438000
United States,Alabama,Smiths Station,32.54014000,-85.09855000
United States,Alabama,Smoke Rise,33.89177000,-86.82027000
United States,Alabama,Southside,33.92454000,-86.02247000
United States,Alabama,Spanish Fort,30.67491000,-87.91527000
United States,Alabama,Springville,33.77505000,-86.47191000
United States,Alabama,Steele,33.93982000,-86.20164000
United States,Alabama,Stevenson,34.86869000,-85.83942000
United States,Alabama,Stewartville,33.07929000,-86.24442000
United States,Alabama,Sulligent,33.90177000,-88.13448000
United States,Alabama,Sumiton,33.75566000,-87.05000000
United States,Alabama,Summerdale,30.48770000,-87.69971000
United States,Alabama,Sumter County,32.59101000,-88.19879000
United States,Alabama,Sylacauga,33.17317000,-86.25164000
United States,Alabama,Sylvan Springs,33.51566000,-87.01499000
United States,Alabama,Sylvania,34.56231000,-85.81247000
United States,Alabama,Talladega,33.43594000,-86.10580000
United States,Alabama,Talladega County,33.38006000,-86.16591000
United States,Alabama,Tallapoosa County,32.86240000,-85.79750000
United States,Alabama,Tallassee,32.53597000,-85.89329000
United States,Alabama,Tarrant,33.58344000,-86.77277000
United States,Alabama,Taylor,31.16490000,-85.46827000
United States,Alabama,Theodore,30.54769000,-88.17528000
United States,Alabama,Thomasville,31.91349000,-87.73584000
United States,Alabama,Thorsby,32.91568000,-86.71582000
United States,Alabama,Tillmans Corner,30.59019000,-88.17084000
United States,Alabama,Town Creek,34.68120000,-87.40613000
United States,Alabama,Trinity,34.60676000,-87.08835000
United States,Alabama,Troy,31.80877000,-85.96995000
United States,Alabama,Trussville,33.61983000,-86.60888000
United States,Alabama,Tuscaloosa,33.20984000,-87.56917000
United States,Alabama,Tuscaloosa County,33.28955000,-87.52503000
United States,Alabama,Tuscumbia,34.73120000,-87.70253000
United States,Alabama,Tuskegee,32.42415000,-85.69096000
United States,Alabama,Underwood-Petersville,34.87695000,-87.69717000
United States,Alabama,Union Springs,32.14432000,-85.71495000
United States,Alabama,Uniontown,32.44958000,-87.51417000
United States,Alabama,Valley,32.81874000,-85.17939000
United States,Alabama,Valley Grande,32.50902000,-86.98749000
United States,Alabama,Vance,33.17428000,-87.23361000
United States,Alabama,Vandiver,33.47066000,-86.51332000
United States,Alabama,Vernon,33.75705000,-88.10892000
United States,Alabama,Vestavia Hills,33.44872000,-86.78777000
United States,Alabama,Vincent,33.38455000,-86.41192000
United States,Alabama,Walker County,33.80333000,-87.29736000
United States,Alabama,Warrior,33.81427000,-86.80944000
United States,Alabama,Washington County,31.40760000,-88.20788000
United States,Alabama,Weaver,33.75205000,-85.81135000
United States,Alabama,Webb,31.26045000,-85.27327000
United States,Alabama,Wedowee,33.30900000,-85.48467000
United States,Alabama,West Blocton,33.11817000,-87.12500000
United States,Alabama,West End-Cobb Town,33.65250000,-85.87420000
United States,Alabama,Westover,33.34955000,-86.53582000
United States,Alabama,Wetumpka,32.54374000,-86.21191000
United States,Alabama,Whitesboro,34.16343000,-86.06942000
United States,Alabama,Wilcox County,31.98924000,-87.30820000
United States,Alabama,Wilsonville,33.23428000,-86.48359000
United States,Alabama,Winfield,33.92899000,-87.81725000
United States,Alabama,Winston County,34.14923000,-87.37368000
United States,Alabama,Woodstock,33.20678000,-87.15000000
United States,Alabama,York,32.48625000,-88.29642000
United States,Alaska,Akutan,54.13350000,-165.77686000
United States,Alaska,Aleutians East Borough,54.85000000,-163.41667000
United States,Alaska,Aleutians West Census Area,52.16298000,-174.28505000
United States,Alaska,Anchor Point,59.77667000,-151.83139000
United States,Alaska,Anchorage,61.21806000,-149.90028000
United States,Alaska,Anchorage Municipality,61.16667000,-149.25056000
United States,Alaska,Badger,64.80000000,-147.53333000
United States,Alaska,Barrow,71.29058000,-156.78872000
United States,Alaska,Bear Creek,60.16417000,-149.39500000
United States,Alaska,Bethel,60.79222000,-161.75583000
United States,Alaska,Bethel Census Area,60.75056000,-160.50056000
United States,Alaska,Big Lake,61.52139000,-149.95444000
United States,Alaska,Bristol Bay Borough,58.75056000,-156.83333000
United States,Alaska,Butte,61.54222000,-149.03333000
United States,Alaska,Chevak,61.52778000,-165.58639000
United States,Alaska,City and Borough of Wrangell,56.41331000,-132.32009000
United States,Alaska,Cohoe,60.36861000,-151.30639000
United States,Alaska,College,64.85694000,-147.80278000
United States,Alaska,Cordova,60.54320000,-145.75867000
United States,Alaska,Craig,55.47639000,-133.14833000
United States,Alaska,Deltana,63.87217000,-145.21773000
United States,Alaska,Denali Borough,63.78889000,-150.19167000
United States,Alaska,Diamond Ridge,59.67611000,-151.55750000
United States,Alaska,Dillingham,59.03972000,-158.45750000
United States,Alaska,Dillingham Census Area,59.76193000,-158.31848000
United States,Alaska,Dutch Harbor,53.88980000,-166.54220000
United States,Alaska,Eagle River,61.32139000,-149.56778000
United States,Alaska,Eielson Air Force Base,64.66327000,-147.05442000
United States,Alaska,Elmendorf Air Force Base,61.25703000,-149.63139000
United States,Alaska,Ester,64.84722000,-148.01444000
United States,Alaska,Fairbanks,64.83778000,-147.71639000
United States,Alaska,Fairbanks North Star Borough,64.83333000,-146.41667000
United States,Alaska,Farm Loop,61.63891000,-149.14215000
United States,Alaska,Farmers Loop,64.90822000,-147.69866000
United States,Alaska,Fishhook,61.74402000,-149.23613000
United States,Alaska,Fritz Creek,59.73611000,-151.29528000
United States,Alaska,Gateway,61.57278000,-149.24083000
United States,Alaska,Girdwood,60.94250000,-149.16639000
United States,Alaska,Haines,59.23595000,-135.44533000
United States,Alaska,Haines Borough,59.25056000,-135.50056000
United States,Alaska,Healy,63.85694000,-148.96611000
United States,Alaska,Homer,59.64250000,-151.54940000
United States,Alaska,Hoonah-Angoon Census Area,57.94807000,-134.94153000
United States,Alaska,Hooper Bay,61.53111000,-166.09667000
United States,Alaska,Houston,61.63028000,-149.81806000
United States,Alaska,Juneau,58.30194000,-134.41972000
United States,Alaska,Kalifornsky,60.41833000,-151.29000000
United States,Alaska,Kenai,60.55444000,-151.25833000
United States,Alaska,Kenai Peninsula Borough,60.41667000,-151.25056000
United States,Alaska,Ketchikan,55.34180000,-131.64757000
United States,Alaska,Ketchikan Gateway Borough,55.50056000,-131.41667000
United States,Alaska,King Cove,55.06087000,-162.31853000
United States,Alaska,Knik-Fairview,61.51262000,-149.60012000
United States,Alaska,Kodiak,57.78852000,-152.40533000
United States,Alaska,Kodiak Island Borough,57.33333000,-153.33333000
United States,Alaska,Kodiak Station,57.76587000,-152.60004000
United States,Alaska,Kotzebue,66.89846000,-162.59809000
United States,Alaska,Lake and Peninsula Borough,57.00056000,-158.00056000
United States,Alaska,Lakes,61.60713000,-149.30861000
United States,Alaska,Lazy Mountain,61.62611000,-148.94556000
United States,Alaska,Matanuska-Susitna Borough,62.50056000,-150.00556000
United States,Alaska,Meadow Lakes,61.62472000,-149.60111000
United States,Alaska,Metlakatla,55.12848000,-131.57519000
United States,Alaska,Nikiski,60.69028000,-151.28889000
United States,Alaska,Nome,64.50111000,-165.40639000
United States,Alaska,Nome Census Area,64.83333000,-163.75056000
United States,Alaska,North Pole,64.75111000,-147.34944000
United States,Alaska,North Slope Borough,69.25056000,-152.00056000
United States,Alaska,Northwest Arctic Borough,66.83333000,-161.00056000
United States,Alaska,Palmer,61.59941000,-149.11456000
United States,Alaska,Petersburg,56.81250000,-132.95556000
United States,Alaska,Petersburg Borough,56.76529000,-133.19313000
United States,Alaska,Prudhoe Bay,70.25528000,-148.33722000
United States,Alaska,Ridgeway,60.53194000,-151.08528000
United States,Alaska,Salcha,64.52399000,-146.90210000
United States,Alaska,Sand Point,55.33655000,-160.49880000
United States,Alaska,Seward,60.10426000,-149.44350000
United States,Alaska,Sitka,57.05315000,-135.33088000
United States,Alaska,Sitka City and Borough,57.08255000,-135.26917000
United States,Alaska,Skagway Municipality,59.46852000,-135.30596000
United States,Alaska,Soldotna,60.48778000,-151.05833000
United States,Alaska,Southeast Fairbanks Census Area,63.75056000,-143.25056000
United States,Alaska,Sterling,60.53722000,-150.76472000
United States,Alaska,Sutton-Alpine,61.77789000,-148.76450000
United States,Alaska,Tanaina,61.62694000,-149.42806000
United States,Alaska,Tok,63.33667000,-142.98556000
United States,Alaska,Unalaska,53.87413000,-166.53408000
United States,Alaska,Valdez,61.13083000,-146.34833000
United States,Alaska,Valdez-Cordova Census Area,61.50056000,-144.50056000
United States,Alaska,Wasilla,61.58090000,-149.44150000
United States,Alaska,Willow,61.74722000,-150.03750000
United States,Alaska,Wrangell,56.47083000,-132.37667000
United States,Alaska,Y,62.16129000,-149.85075000
United States,Alaska,Yakutat City and Borough,59.66667000,-139.13333000
United States,Alaska,Yukon-Koyukuk Census Area,65.70000000,-152.71667000
United States,Arizona,Ahwatukee Foothills,33.34171000,-111.98403000
United States,Arizona,Ajo,32.37172000,-112.86071000
United States,Arizona,Alhambra,33.49838000,-112.13432000
United States,Arizona,Anthem,33.86726000,-112.14682000
United States,Arizona,Apache County,35.39560000,-109.48884000
United States,Arizona,Apache Junction,33.41505000,-111.54958000
United States,Arizona,Arivaca Junction,31.72731000,-111.06120000
United States,Arizona,Arizona City,32.75589000,-111.67096000
United States,Arizona,Avenue B and C,32.71904000,-114.66005000
United States,Arizona,Avondale,33.43560000,-112.34960000
United States,Arizona,Avra Valley,32.43785000,-111.31539000
United States,Arizona,Bagdad,34.58113000,-113.20464000
United States,Arizona,Beaver Dam,36.89942000,-113.93274000
United States,Arizona,Benson,31.96786000,-110.29452000
United States,Arizona,Big Park,34.78030000,-111.76265000
United States,Arizona,Bisbee,31.44815000,-109.92841000
United States,Arizona,Black Canyon City,34.07087000,-112.15071000
United States,Arizona,Blackwater,33.03117000,-111.58263000
United States,Arizona,Buckeye,33.37032000,-112.58378000
United States,Arizona,Bullhead City,35.14778000,-114.56830000
United States,Arizona,Bylas,33.13428000,-110.12004000
United States,Arizona,Cactus Flat,32.75840000,-109.71619000
United States,Arizona,Camp Verde,34.56364000,-111.85432000
United States,Arizona,Canyon Day,33.78477000,-110.02649000
United States,Arizona,Carefree,33.82226000,-111.91820000
United States,Arizona,Casa Blanca,33.12033000,-111.88819000
United States,Arizona,Casa Grande,32.87950000,-111.75735000
United States,Arizona,Casas Adobes,32.32341000,-110.99510000
United States,Arizona,Catalina,32.50556000,-110.92111000
United States,Arizona,Catalina Foothills,32.29785000,-110.91870000
United States,Arizona,Cave Creek,33.83333000,-111.95083000
United States,Arizona,Centennial Park,36.95381000,-112.98132000
United States,Arizona,Central City,33.44001000,-112.05805000
United States,Arizona,Central Heights-Midland City,33.40372000,-110.81541000
United States,Arizona,Chandler,33.30616000,-111.84125000
United States,Arizona,Chinle,36.15445000,-109.55261000
United States,Arizona,Chino Valley,34.75752000,-112.45378000
United States,Arizona,Cibecue,34.04477000,-110.48539000
United States,Arizona,Cienega Springs,34.18863000,-114.22467000
United States,Arizona,Citrus Park,33.54865000,-112.44433000
United States,Arizona,Clarkdale,34.77113000,-112.05794000
United States,Arizona,Claypool,33.41117000,-110.84261000
United States,Arizona,Clifton,33.05090000,-109.29618000
United States,Arizona,Cochise County,31.87957000,-109.75114000
United States,Arizona,Coconino County,35.83873000,-111.77050000
United States,Arizona,Colorado City,36.99026000,-112.97577000
United States,Arizona,Congress,34.16253000,-112.85074000
United States,Arizona,Coolidge,32.97784000,-111.51762000
United States,Arizona,Cordes Lakes,34.30781000,-112.10349000
United States,Arizona,Cornville,34.71780000,-111.92154000
United States,Arizona,Corona de Tucson,31.96536000,-110.77564000
United States,Arizona,Cottonwood,34.73919000,-112.00988000
United States,Arizona,Deer Valley,33.68393000,-112.13488000
United States,Arizona,Desert Hills,34.55390000,-114.37246000
United States,Arizona,Dewey-Humboldt,34.53000000,-112.24222000
United States,Arizona,Dilkon,35.38529000,-110.32068000
United States,Arizona,Dolan Springs,35.59194000,-114.27329000
United States,Arizona,Donovan Estates,32.70935000,-114.67822000
United States,Arizona,Douglas,31.34455000,-109.54534000
United States,Arizona,Drexel Heights,32.14119000,-111.02843000
United States,Arizona,Eagar,34.11124000,-109.29238000
United States,Arizona,East Sahuarita,31.94286000,-110.92842000
United States,Arizona,Ehrenberg,33.60419000,-114.52523000
United States,Arizona,El Mirage,33.61309000,-112.32460000
United States,Arizona,Eloy,32.75590000,-111.55484000
United States,Arizona,Encanto,33.47937000,-112.07823000
United States,Arizona,First Mesa,35.83667000,-110.38152000
United States,Arizona,Flagstaff,35.19807000,-111.65127000
United States,Arizona,Florence,33.03145000,-111.38734000
United States,Arizona,Flowing Wells,32.29396000,-111.00982000
United States,Arizona,Fort Defiance,35.74446000,-109.07648000
United States,Arizona,Fortuna Foothills,32.65783000,-114.41189000
United States,Arizona,Fountain Hills,33.61171000,-111.71736000
United States,Arizona,Fredonia,36.94554000,-112.52659000
United States,Arizona,Ganado,35.71140000,-109.54205000
United States,Arizona,Gila Bend,32.94782000,-112.71683000
United States,Arizona,Gila County,33.79975000,-110.81174000
United States,Arizona,Gilbert,33.35283000,-111.78903000
United States,Arizona,Glendale,33.53865000,-112.18599000
United States,Arizona,Globe,33.39422000,-110.78650000
United States,Arizona,Gold Camp,33.29367000,-111.30429000
United States,Arizona,Gold Canyon,33.37145000,-111.43691000
United States,Arizona,Golden Shores,34.78188000,-114.47775000
United States,Arizona,Golden Valley,35.22333000,-114.22301000
United States,Arizona,Goodyear,33.43532000,-112.35821000
United States,Arizona,Graham County,32.93272000,-109.88744000
United States,Arizona,Grand Canyon,36.05443000,-112.13934000
United States,Arizona,Grand Canyon Village,36.04637000,-112.15406000
United States,Arizona,Green Valley,31.85425000,-110.99370000
United States,Arizona,Greenlee County,33.21536000,-109.24010000
United States,Arizona,Guadalupe,33.37088000,-111.96292000
United States,Arizona,Heber-Overgaard,34.41414000,-110.56956000
United States,Arizona,Holbrook,34.90225000,-110.15818000
United States,Arizona,Houck,35.28308000,-109.20704000
United States,Arizona,Huachuca City,31.62787000,-110.33397000
United States,Arizona,Joseph City,34.95586000,-110.33401000
United States,Arizona,Kachina Village,35.09696000,-111.69266000
United States,Arizona,Kaibito,36.59722000,-111.07431000
United States,Arizona,Kayenta,36.72778000,-110.25458000
United States,Arizona,Kearny,33.05701000,-110.91067000
United States,Arizona,Kingman,35.18944000,-114.05301000
United States,Arizona,La Paz County,33.72926000,-113.98134000
United States,Arizona,Lake Havasu City,34.48390000,-114.32245000
United States,Arizona,Lake Montezuma,34.63224000,-111.77793000
United States,Arizona,Lake of the Woods,34.16393000,-109.98955000
United States,Arizona,Laveen,33.36282000,-112.16932000
United States,Arizona,LeChee,36.86211000,-111.44063000
United States,Arizona,Linden,34.28504000,-110.15706000
United States,Arizona,Litchfield Park,33.49337000,-112.35794000
United States,Arizona,Lukachukai,36.41695000,-109.22871000
United States,Arizona,Mammoth,32.72257000,-110.64065000
United States,Arizona,Many Farms,36.35278000,-109.61789000
United States,Arizona,Marana,32.43674000,-111.22538000
United States,Arizona,Maricopa,33.05811000,-112.04764000
United States,Arizona,Maricopa County,33.34883000,-112.49123000
United States,Arizona,Maryvale,33.50199000,-112.17765000
United States,Arizona,Mayer,34.39781000,-112.23627000
United States,Arizona,Meadview,36.00221000,-114.06829000
United States,Arizona,Mesa,33.42227000,-111.82264000
United States,Arizona,Mescal,31.99008000,-110.43535000
United States,Arizona,Miami,33.39922000,-110.86872000
United States,Arizona,Mohave County,35.70404000,-113.75791000
United States,Arizona,Mohave Valley,34.93306000,-114.58885000
United States,Arizona,Morenci,33.07867000,-109.36535000
United States,Arizona,Mountainaire,35.08529000,-111.66599000
United States,Arizona,Naco,31.33538000,-109.94813000
United States,Arizona,Navajo County,35.39963000,-110.32140000
United States,Arizona,New Kingman-Butler,35.26504000,-114.03226000
United States,Arizona,New River,33.91587000,-112.13599000
United States,Arizona,Nogales,31.34038000,-110.93425000
United States,Arizona,North Fork,34.00167000,-109.96355000
United States,Arizona,Oracle,32.61091000,-110.77093000
United States,Arizona,Oro Valley,32.39091000,-110.96649000
United States,Arizona,Page,36.91472000,-111.45583000
United States,Arizona,Paradise Valley,33.53115000,-111.94265000
United States,Arizona,Parker,34.15002000,-114.28912000
United States,Arizona,Parks,35.26057000,-111.94877000
United States,Arizona,Paulden,34.88558000,-112.46823000
United States,Arizona,Payson,34.23087000,-111.32514000
United States,Arizona,Peach Springs,35.52916000,-113.42549000
United States,Arizona,Peoria,33.58060000,-112.23738000
United States,Arizona,Peridot,33.31034000,-110.45538000
United States,Arizona,Phoenix,33.44838000,-112.07404000
United States,Arizona,Picture Rocks,32.34591000,-111.24621000
United States,Arizona,Pima,32.89656000,-109.82835000
United States,Arizona,Pima County,32.09738000,-111.78995000
United States,Arizona,Pinal County,32.90431000,-111.34471000
United States,Arizona,Pine,34.38447000,-111.45514000
United States,Arizona,Pinetop-Lakeside,34.14254000,-109.96038000
United States,Arizona,Pirtleville,31.35716000,-109.56352000
United States,Arizona,Prescott,34.54002000,-112.46850000
United States,Arizona,Prescott Valley,34.61002000,-112.31572000
United States,Arizona,Quartzsite,33.66391000,-114.22995000
United States,Arizona,Queen Creek,33.24866000,-111.63430000
United States,Arizona,Rio Rico,31.47148000,-110.97648000
United States,Arizona,Rio Verde,33.72254000,-111.67569000
United States,Arizona,Sacaton,33.07672000,-111.73930000
United States,Arizona,Saddle Brooke,32.53472000,-110.87361000
United States,Arizona,Safford,32.83395000,-109.70758000
United States,Arizona,Sahuarita,31.95758000,-110.95565000
United States,Arizona,Saint David,31.90425000,-110.21424000
United States,Arizona,Saint Johns,34.50587000,-109.36093000
United States,Arizona,Saint Michaels,35.64474000,-109.09565000
United States,Arizona,Salome,33.78114000,-113.61465000
United States,Arizona,San Carlos,33.34562000,-110.45504000
United States,Arizona,San Luis,32.48700000,-114.78218000
United States,Arizona,San Manuel,32.59979000,-110.63093000
United States,Arizona,San Tan Valley,33.19110000,-111.52800000
United States,Arizona,Santa Cruz County,31.52600000,-110.84657000
United States,Arizona,Scenic,36.79359000,-114.01275000
United States,Arizona,Scottsdale,33.50921000,-111.89903000
United States,Arizona,Sedona,34.86974000,-111.76099000
United States,Arizona,Sells,31.91202000,-111.88123000
United States,Arizona,Show Low,34.25421000,-110.02983000
United States,Arizona,Sierra Vista,31.55454000,-110.30369000
United States,Arizona,Sierra Vista Southeast,31.45385000,-110.21637000
United States,Arizona,Six Shooter Canyon,33.36678000,-110.77460000
United States,Arizona,Snowflake,34.51337000,-110.07845000
United States,Arizona,Somerton,32.59644000,-114.70968000
United States,Arizona,South Tucson,32.19952000,-110.96842000
United States,Arizona,Spring Valley,34.34503000,-112.15905000
United States,Arizona,Springerville,34.13355000,-109.28834000
United States,Arizona,Star Valley,34.25504000,-111.25847000
United States,Arizona,Summit,32.06702000,-110.95148000
United States,Arizona,Sun City,33.59754000,-112.27182000
United States,Arizona,Sun City West,33.66198000,-112.34127000
United States,Arizona,Sun Lakes,33.21116000,-111.87542000
United States,Arizona,Sun Valley,34.25420000,-111.26125000
United States,Arizona,Superior,33.29395000,-111.09623000
United States,Arizona,Surprise,33.63059000,-112.33322000
United States,Arizona,Swift Trail Junction,32.72979000,-109.71397000
United States,Arizona,Tanque Verde,32.25174000,-110.73731000
United States,Arizona,Taylor,34.46504000,-110.09123000
United States,Arizona,Tempe,33.41477000,-111.90931000
United States,Arizona,Tempe Junction,33.41421000,-111.94348000
United States,Arizona,Thatcher,32.84923000,-109.75925000
United States,Arizona,Three Points,32.07675000,-111.31371000
United States,Arizona,Tolleson,33.45004000,-112.25932000
United States,Arizona,Tombstone,31.71287000,-110.06758000
United States,Arizona,Tonto Basin,33.83171000,-111.29457000
United States,Arizona,Tortolita,32.41035000,-111.01732000
United States,Arizona,Tsaile,36.30330000,-109.21566000
United States,Arizona,Tuba City,36.13499000,-111.23986000
United States,Arizona,Tubac,31.61259000,-111.04592000
United States,Arizona,Tucson,32.22174000,-110.92648000
United States,Arizona,Tucson Estates,32.18758000,-111.09093000
United States,Arizona,Vail,32.04786000,-110.71203000
United States,Arizona,Valencia West,32.13238000,-111.11414000
United States,Arizona,Valle Vista,35.41088000,-113.86271000
United States,Arizona,Verde Village,34.71050000,-112.01152000
United States,Arizona,Village of Oak Creek (Big Park),34.78090000,-111.76227000
United States,Arizona,Wellton,32.67283000,-114.14688000
United States,Arizona,West Sedona,34.86724000,-111.80543000
United States,Arizona,Whetstone,31.95731000,-110.34202000
United States,Arizona,White Mountain Lake,34.34865000,-109.99789000
United States,Arizona,Whiteriver,33.83699000,-109.96427000
United States,Arizona,Wickenburg,33.96864000,-112.72962000
United States,Arizona,Willcox,32.25285000,-109.83201000
United States,Arizona,Williams,35.24946000,-112.19100000
United States,Arizona,Williamson,34.69002000,-112.54101000
United States,Arizona,Willow Valley,34.91195000,-114.60663000
United States,Arizona,Window Rock,35.68057000,-109.05259000
United States,Arizona,Winslow,35.02419000,-110.69736000
United States,Arizona,Yavapai County,34.59988000,-112.55387000
United States,Arizona,Youngtown,33.59393000,-112.30294000
United States,Arizona,Yuma,32.72532000,-114.62440000
United States,Arizona,Yuma County,32.76940000,-113.90556000
United States,Arkansas,Alexander,34.62954000,-92.44127000
United States,Arkansas,Alma,35.47787000,-94.22188000
United States,Arkansas,Arkadelphia,34.12093000,-93.05378000
United States,Arkansas,Arkansas City,33.60872000,-91.20678000
United States,Arkansas,Arkansas County,34.29081000,-91.37491000
United States,Arkansas,Ash Flat,36.22396000,-91.60848000
United States,Arkansas,Ashdown,33.67429000,-94.13131000
United States,Arkansas,Ashley County,33.19122000,-91.76845000
United States,Arkansas,Atkins,35.24647000,-92.93656000
United States,Arkansas,Augusta,35.28231000,-91.36541000
United States,Arkansas,Austin,34.99842000,-91.98376000
United States,Arkansas,Bald Knob,35.30981000,-91.56791000
United States,Arkansas,Barling,35.32565000,-94.30160000
United States,Arkansas,Batesville,35.76980000,-91.64097000
United States,Arkansas,Baxter County,36.28719000,-92.33697000
United States,Arkansas,Bay,35.74230000,-90.56233000
United States,Arkansas,Beebe,35.07064000,-91.87959000
United States,Arkansas,Bella Vista,36.48070000,-94.27134000
United States,Arkansas,Benton,34.56454000,-92.58683000
United States,Arkansas,Benton County,36.33872000,-94.25619000
United States,Arkansas,Bentonville,36.37285000,-94.20882000
United States,Arkansas,Berryville,36.36479000,-93.56797000
United States,Arkansas,Bethel Heights,36.21424000,-94.12937000
United States,Arkansas,Blytheville,35.92730000,-89.91898000
United States,Arkansas,Bono,35.90868000,-90.80262000
United States,Arkansas,Boone County,36.30859000,-93.09150000
United States,Arkansas,Booneville,35.14009000,-93.92159000
United States,Arkansas,Bradley County,33.46642000,-92.16240000
United States,Arkansas,Brinkley,34.88787000,-91.19457000
United States,Arkansas,Brookland,35.90007000,-90.58205000
United States,Arkansas,Bryant,34.59593000,-92.48905000
United States,Arkansas,Bull Shoals,36.38396000,-92.58155000
United States,Arkansas,Cabot,34.97453000,-92.01653000
United States,Arkansas,Calhoun County,33.55803000,-92.50304000
United States,Arkansas,Calico Rock,36.11951000,-92.13599000
United States,Arkansas,Camden,33.58456000,-92.83433000
United States,Arkansas,Caraway,35.75813000,-90.32232000
United States,Arkansas,Carlisle,34.78315000,-91.74652000
United States,Arkansas,Carroll County,36.34102000,-93.53818000
United States,Arkansas,Cave City,35.94174000,-91.54847000
United States,Arkansas,Cave Springs,36.26341000,-94.23187000
United States,Arkansas,Cedarville,35.56981000,-94.36688000
United States,Arkansas,Centerton,36.35980000,-94.28521000
United States,Arkansas,Charleston,35.29704000,-94.03632000
United States,Arkansas,Cherokee Village,36.29784000,-91.51597000
United States,Arkansas,Chicot County,33.26725000,-91.29397000
United States,Arkansas,Clarendon,34.69315000,-91.31374000
United States,Arkansas,Clark County,34.05096000,-93.17637000
United States,Arkansas,Clarksville,35.47147000,-93.46657000
United States,Arkansas,Clay County,36.36839000,-90.41738000
United States,Arkansas,Cleburne County,35.53811000,-92.02674000
United States,Arkansas,Cleveland County,33.89836000,-92.18514000
United States,Arkansas,Clinton,35.59147000,-92.46044000
United States,Arkansas,Coal Hill,35.43731000,-93.67297000
United States,Arkansas,Columbia County,33.21429000,-93.22731000
United States,Arkansas,Conway,35.08870000,-92.44210000
United States,Arkansas,Conway County,35.26221000,-92.70132000
United States,Arkansas,Corning,36.40784000,-90.57983000
United States,Arkansas,Craighead County,35.83079000,-90.63285000
United States,Arkansas,Crawford County,35.58883000,-94.24312000
United States,Arkansas,Crittenden County,35.20794000,-90.30886000
United States,Arkansas,Cross County,35.29573000,-90.77123000
United States,Arkansas,Crossett,33.12818000,-91.96124000
United States,Arkansas,Dallas County,33.96983000,-92.65444000
United States,Arkansas,Danville,35.05398000,-93.39352000
United States,Arkansas,Dardanelle,35.22314000,-93.15795000
United States,Arkansas,De Queen,34.03789000,-94.34132000
United States,Arkansas,De Witt,34.29288000,-91.33790000
United States,Arkansas,Decatur,36.33591000,-94.46077000
United States,Arkansas,Dermott,33.52539000,-91.43595000
United States,Arkansas,Des Arc,34.97704000,-91.49513000
United States,Arkansas,Desha County,33.83333000,-91.25395000
United States,Arkansas,Diaz,35.63841000,-91.26513000
United States,Arkansas,Dierks,34.11928000,-94.01658000
United States,Arkansas,Dover,35.40147000,-93.11434000
United States,Arkansas,Drew County,33.58945000,-91.72002000
United States,Arkansas,Dumas,33.88705000,-91.49179000
United States,Arkansas,Earle,35.27509000,-90.46677000
United States,Arkansas,East End,34.55065000,-92.34099000
United States,Arkansas,El Dorado,33.20763000,-92.66627000
United States,Arkansas,Elkins,36.00147000,-94.00825000
United States,Arkansas,Elm Springs,36.20619000,-94.23437000
United States,Arkansas,England,34.54426000,-91.96903000
United States,Arkansas,Eudora,33.10957000,-91.26206000
United States,Arkansas,Eureka Springs,36.40118000,-93.73797000
United States,Arkansas,Fairfield Bay,35.59424000,-92.27793000
United States,Arkansas,Farmington,36.04202000,-94.24715000
United States,Arkansas,Faulkner County,35.14698000,-92.33204000
United States,Arkansas,Fayetteville,36.06258000,-94.15743000
United States,Arkansas,Flippin,36.27896000,-92.59711000
United States,Arkansas,Fordyce,33.81372000,-92.41293000
United States,Arkansas,Forrest City,35.00815000,-90.78983000
United States,Arkansas,Fort Smith,35.38592000,-94.39855000
United States,Arkansas,Franklin County,35.51235000,-93.89062000
United States,Arkansas,Fulton County,36.38167000,-91.81824000
United States,Arkansas,Garland County,34.57669000,-93.15043000
United States,Arkansas,Gassville,36.28312000,-92.49405000
United States,Arkansas,Gentry,36.26758000,-94.48466000
United States,Arkansas,Gibson,34.88426000,-92.23570000
United States,Arkansas,Glenwood,34.32677000,-93.55074000
United States,Arkansas,Goshen,36.10119000,-93.99131000
United States,Arkansas,Gosnell,35.95979000,-89.97203000
United States,Arkansas,Grant County,34.29002000,-92.42358000
United States,Arkansas,Gravel Ridge,34.86842000,-92.19070000
United States,Arkansas,Gravette,36.42202000,-94.45355000
United States,Arkansas,Green Forest,36.33535000,-93.43602000
United States,Arkansas,Greenbrier,35.23397000,-92.38765000
United States,Arkansas,Greene County,36.11769000,-90.55908000
United States,Arkansas,Greenland,35.99425000,-94.17520000
United States,Arkansas,Greenwood,35.21565000,-94.25577000
United States,Arkansas,Gurdon,33.92094000,-93.15406000
United States,Arkansas,Hamburg,33.22818000,-91.79763000
United States,Arkansas,Hampton,33.53789000,-92.46988000
United States,Arkansas,Harrisburg,35.56425000,-90.71678000
United States,Arkansas,Harrison,36.22979000,-93.10768000
United States,Arkansas,Haskell,34.50148000,-92.63655000
United States,Arkansas,Hazen,34.78093000,-91.58097000
United States,Arkansas,Heber Springs,35.49147000,-92.03126000
United States,Arkansas,Helena,34.52955000,-90.59177000
United States,Arkansas,Helena-West Helena,34.52910000,-90.59000000
United States,Arkansas,Hempstead County,33.73530000,-93.66844000
United States,Arkansas,Highland,36.27590000,-91.52403000
United States,Arkansas,Holiday Island,36.48535000,-93.73214000
United States,Arkansas,Hope,33.66706000,-93.59157000
United States,Arkansas,Horatio,33.93845000,-94.35715000
United States,Arkansas,Horseshoe Bend,36.22923000,-91.76431000
United States,Arkansas,Hot Spring County,34.31763000,-92.94601000
United States,Arkansas,Hot Springs,34.50370000,-93.05518000
United States,Arkansas,Hot Springs National Park,34.53170000,-93.06377000
United States,Arkansas,Hot Springs Village,34.67204000,-92.99879000
United States,Arkansas,Howard County,34.08874000,-93.99349000
United States,Arkansas,Hoxie,36.05035000,-90.97512000
United States,Arkansas,Hughes,34.94926000,-90.47149000
United States,Arkansas,Huntsville,36.08619000,-93.74130000
United States,Arkansas,Independence County,35.74158000,-91.56972000
United States,Arkansas,Izard County,36.09487000,-91.91342000
United States,Arkansas,Jackson County,35.59923000,-91.21457000
United States,Arkansas,Jacksonville,34.86620000,-92.11015000
United States,Arkansas,Jasper,36.00813000,-93.18657000
United States,Arkansas,Jefferson County,34.26879000,-91.93151000
United States,Arkansas,Johnson,36.13286000,-94.16548000
United States,Arkansas,Johnson County,35.57005000,-93.45991000
United States,Arkansas,Jonesboro,35.84230000,-90.70428000
United States,Arkansas,Judsonia,35.27009000,-91.63986000
United States,Arkansas,Kensett,35.23175000,-91.66764000
United States,Arkansas,Lafayette County,33.24098000,-93.60704000
United States,Arkansas,Lake City,35.81619000,-90.43427000
United States,Arkansas,Lake Hamilton,34.42453000,-93.09518000
United States,Arkansas,Lake Village,33.32873000,-91.28178000
United States,Arkansas,Lamar,35.44064000,-93.38796000
United States,Arkansas,Landmark,34.61120000,-92.31960000
United States,Arkansas,Lavaca,35.33620000,-94.17326000
United States,Arkansas,Lawrence County,36.04125000,-91.10708000
United States,Arkansas,Leachville,35.93591000,-90.25788000
United States,Arkansas,Lee County,34.78062000,-90.78207000
United States,Arkansas,Lepanto,35.61119000,-90.32982000
United States,Arkansas,Lewisville,33.35846000,-93.57768000
United States,Arkansas,Lincoln,35.94953000,-94.42355000
United States,Arkansas,Lincoln County,33.95747000,-91.73332000
United States,Arkansas,Little Flock,36.38591000,-94.13520000
United States,Arkansas,Little River County,33.70054000,-94.23434000
United States,Arkansas,Little Rock,34.74648000,-92.28959000
United States,Arkansas,Little Rock Air Force Base,34.89149000,-92.15955000
United States,Arkansas,Logan County,35.21527000,-93.71631000
United States,Arkansas,London,35.32897000,-93.25296000
United States,Arkansas,Lonoke,34.78398000,-91.89986000
United States,Arkansas,Lonoke County,34.75427000,-91.88867000
United States,Arkansas,Lowell,36.25535000,-94.13076000
United States,Arkansas,Luxora,35.75619000,-89.92814000
United States,Arkansas,Madison County,36.01096000,-93.72456000
United States,Arkansas,Magnolia,33.26707000,-93.23933000
United States,Arkansas,Malvern,34.36231000,-92.81295000
United States,Arkansas,Manila,35.88007000,-90.16704000
United States,Arkansas,Mansfield,35.05954000,-94.25271000
United States,Arkansas,Marianna,34.77371000,-90.75761000
United States,Arkansas,Marion,35.21453000,-90.19648000
United States,Arkansas,Marion County,36.26835000,-92.68422000
United States,Arkansas,Marked Tree,35.53286000,-90.42066000
United States,Arkansas,Marmaduke,36.18701000,-90.38316000
United States,Arkansas,Marshall,35.90896000,-92.63127000
United States,Arkansas,Marvell,34.55566000,-90.91289000
United States,Arkansas,Maumelle,34.86676000,-92.40432000
United States,Arkansas,Mayflower,34.95703000,-92.42738000
United States,Arkansas,McAlmont,34.80842000,-92.18181000
United States,Arkansas,McCrory,35.25620000,-91.20012000
United States,Arkansas,McGehee,33.62900000,-91.39956000
United States,Arkansas,Melbourne,36.05951000,-91.90848000
United States,Arkansas,Mena,34.58622000,-94.23966000
United States,Arkansas,Midway,36.38534000,-92.46183000
United States,Arkansas,Miller County,33.31215000,-93.89156000
United States,Arkansas,Mineral Springs,33.87512000,-93.91380000
United States,Arkansas,Mississippi County,35.76390000,-90.05417000
United States,Arkansas,Monette,35.89063000,-90.34427000
United States,Arkansas,Monroe County,34.67784000,-91.20389000
United States,Arkansas,Montgomery County,34.53879000,-93.65953000
United States,Arkansas,Monticello,33.62900000,-91.79096000
United States,Arkansas,Morrilton,35.15092000,-92.74405000
United States,Arkansas,Mount Ida,34.55676000,-93.63408000
United States,Arkansas,Mountain Home,36.33534000,-92.38516000
United States,Arkansas,Mountain View,35.86841000,-92.11765000
United States,Arkansas,Mulberry,35.50064000,-94.05159000
United States,Arkansas,Murfreesboro,34.06233000,-93.68990000
United States,Arkansas,Nashville,33.94567000,-93.84713000
United States,Arkansas,Nevada County,33.66397000,-93.30714000
United States,Arkansas,Newark,35.70174000,-91.44152000
United States,Arkansas,Newport,35.60480000,-91.28180000
United States,Arkansas,Newton County,35.91997000,-93.21787000
United States,Arkansas,North Crossett,33.16568000,-91.94152000
United States,Arkansas,North Little Rock,34.76954000,-92.26709000
United States,Arkansas,Ola,35.03231000,-93.22323000
United States,Arkansas,Osceola,35.70508000,-89.96953000
United States,Arkansas,Ouachita County,33.59336000,-92.88193000
United States,Arkansas,Ozark,35.48703000,-93.82770000
United States,Arkansas,Paragould,36.05840000,-90.49733000
United States,Arkansas,Paris,35.29203000,-93.72992000
United States,Arkansas,Parkin,35.26342000,-90.57122000
United States,Arkansas,Pea Ridge,36.45396000,-94.11520000
United States,Arkansas,Perry County,34.94737000,-92.93147000
United States,Arkansas,Perryville,35.00481000,-92.80267000
United States,Arkansas,Phillips County,34.42829000,-90.84802000
United States,Arkansas,Piggott,36.38284000,-90.19065000
United States,Arkansas,Pike County,34.16350000,-93.65634000
United States,Arkansas,Pine Bluff,34.22843000,-92.00320000
United States,Arkansas,Piney,34.50314000,-93.12602000
United States,Arkansas,Pocahontas,36.26146000,-90.97123000
United States,Arkansas,Poinsett County,35.57404000,-90.66293000
United States,Arkansas,Polk County,34.48584000,-94.22807000
United States,Arkansas,Pope County,35.44763000,-93.03416000
United States,Arkansas,Pottsville,35.24814000,-93.04906000
United States,Arkansas,Prairie County,34.82979000,-91.55277000
United States,Arkansas,Prairie Creek,36.34202000,-94.06187000
United States,Arkansas,Prairie Grove,35.97591000,-94.31771000
United States,Arkansas,Prescott,33.80261000,-93.38101000
United States,Arkansas,Pulaski County,34.76993000,-92.31180000
United States,Arkansas,Randolph County,36.34148000,-91.02772000
United States,Arkansas,Rector,36.26312000,-90.29260000
United States,Arkansas,Redfield,34.44510000,-92.18320000
United States,Arkansas,Rison,33.95843000,-92.19015000
United States,Arkansas,Rockwell,34.46426000,-93.13379000
United States,Arkansas,Rogers,36.33202000,-94.11854000
United States,Arkansas,Russellville,35.27842000,-93.13379000
United States,Arkansas,Saint Francis County,35.02200000,-90.74778000
United States,Arkansas,Salem,34.62898000,-92.55822000
United States,Arkansas,Saline County,34.64662000,-92.67657000
United States,Arkansas,Scott County,34.86077000,-94.06325000
United States,Arkansas,Searcy,35.25064000,-91.73625000
United States,Arkansas,Searcy County,35.91090000,-92.69949000
United States,Arkansas,Sebastian County,35.19926000,-94.27391000
United States,Arkansas,Sevier County,33.99720000,-94.24122000
United States,Arkansas,Shannon Hills,34.62009000,-92.39543000
United States,Arkansas,Sharp County,36.16116000,-91.47986000
United States,Arkansas,Sheridan,34.30704000,-92.40127000
United States,Arkansas,Sherwood,34.81509000,-92.22432000
United States,Arkansas,Siloam Springs,36.18814000,-94.54050000
United States,Arkansas,Smackover,33.36485000,-92.72488000
United States,Arkansas,Southside,35.69841000,-91.62347000
United States,Arkansas,Springdale,36.18674000,-94.12881000
United States,Arkansas,Stamps,33.36540000,-93.49518000
United States,Arkansas,Star City,33.94288000,-91.84347000
United States,Arkansas,Stone County,35.85987000,-92.15668000
United States,Arkansas,Stuttgart,34.50037000,-91.55263000
United States,Arkansas,Sulphur Springs,34.18065000,-92.12348000
United States,Arkansas,Texarkana,33.44179000,-94.03769000
United States,Arkansas,Tontitown,36.17786000,-94.23354000
United States,Arkansas,Trumann,35.67369000,-90.50733000
United States,Arkansas,Tuckerman,35.73063000,-91.19846000
United States,Arkansas,Union County,33.17136000,-92.59729000
United States,Arkansas,Van Buren,35.43676000,-94.34827000
United States,Arkansas,Van Buren County,35.58065000,-92.51570000
United States,Arkansas,Vilonia,35.08398000,-92.20793000
United States,Arkansas,Waldo,33.35151000,-93.29573000
United States,Arkansas,Waldron,34.89843000,-94.09076000
United States,Arkansas,Walnut Ridge,36.06840000,-90.95595000
United States,Arkansas,Ward,35.03036000,-91.95042000
United States,Arkansas,Warren,33.61261000,-92.06458000
United States,Arkansas,Washington County,35.97907000,-94.21558000
United States,Arkansas,West Crossett,33.14096000,-91.99402000
United States,Arkansas,West Fork,35.92425000,-94.18854000
United States,Arkansas,West Helena,34.55066000,-90.64177000
United States,Arkansas,West Memphis,35.14648000,-90.18454000
United States,Arkansas,White County,35.25627000,-91.74555000
United States,Arkansas,White Hall,34.27399000,-92.09098000
United States,Arkansas,Woodruff County,35.18633000,-91.24307000
United States,Arkansas,Wrightsville,34.60232000,-92.21681000
United States,Arkansas,Wynne,35.22453000,-90.78678000
United States,Arkansas,Yell County,35.00260000,-93.41125000
United States,Arkansas,Yellville,36.22618000,-92.68489000
United States,California,Acalanes Ridge,37.90472000,-122.07857000
United States,California,Acton,34.46999000,-118.19674000
United States,California,Adelanto,34.58277000,-117.40922000
United States,California,Agoura,34.14306000,-118.73787000
United States,California,Agoura Hills,34.13639000,-118.77453000
United States,California,Agua Dulce,34.49638000,-118.32563000
United States,California,Aguanga,33.44281000,-116.86502000
United States,California,Ahwahnee,37.36550000,-119.72627000
United States,California,Alameda,37.76521000,-122.24164000
United States,California,Alameda County,37.65055000,-121.91789000
United States,California,Alamo,37.85020000,-122.03218000
United States,California,Albany,37.88687000,-122.29775000
United States,California,Alhambra,34.09529000,-118.12701000
United States,California,Aliso Viejo,33.56504000,-117.72712000
United States,California,Allendale,38.44463000,-121.94302000
United States,California,Alondra Park,33.88946000,-118.33091000
United States,California,Alpaugh,35.88773000,-119.48734000
United States,California,Alpine,32.83505000,-116.76641000
United States,California,Alpine County,38.59725000,-119.82065000
United States,California,Alta Sierra,35.73126000,-118.55390000
United States,California,Altadena,34.18973000,-118.13118000
United States,California,Alturas,41.48714000,-120.54349000
United States,California,Alum Rock,37.36605000,-121.82718000
United States,California,Amador County,38.44639000,-120.65112000
United States,California,American Canyon,38.17492000,-122.26080000
United States,California,Amesti,36.96356000,-121.77912000
United States,California,Anaheim,33.83529000,-117.91450000
United States,California,Anderson,40.44821000,-122.29778000
United States,California,Angels Camp,38.06826000,-120.53965000
United States,California,Angwin,38.57574000,-122.44998000
United States,California,Antelope,38.70824000,-121.32995000
United States,California,Antioch,38.00492000,-121.80579000
United States,California,Anza,33.55503000,-116.67363000
United States,California,Apple Valley,34.50083000,-117.18588000
United States,California,Aptos,36.97717000,-121.89940000
United States,California,Aptos Hills-Larkin Valley,36.96064000,-121.83404000
United States,California,Arbuckle,39.01740000,-122.05775000
United States,California,Arcadia,34.13973000,-118.03534000
United States,California,Arcata,40.86652000,-124.08284000
United States,California,Arden-Arcade,38.60250000,-121.37854000
United States,California,Armona,36.31578000,-119.70846000
United States,California,Arnold,38.25547000,-120.35103000
United States,California,Aromas,36.88856000,-121.64300000
United States,California,Arroyo Grande,35.11859000,-120.59073000
United States,California,Artesia,33.86585000,-118.08312000
United States,California,Arvin,35.20913000,-118.82843000
United States,California,Ashland,37.69465000,-122.11385000
United States,California,Atascadero,35.48942000,-120.67073000
United States,California,Atherton,37.46133000,-122.19774000
United States,California,Atwater,37.34772000,-120.60908000
United States,California,Auberry,37.08078000,-119.48541000
United States,California,Auburn,38.89657000,-121.07689000
United States,California,Auburn Lake Trails,38.91434000,-120.95244000
United States,California,August,37.97881000,-121.26217000
United States,California,Avalon,33.34281000,-118.32785000
United States,California,Avenal,36.00412000,-120.12903000
United States,California,Avila Beach,35.17998000,-120.73184000
United States,California,Avocado Heights,34.03612000,-117.99118000
United States,California,Azusa,34.13362000,-117.90756000
United States,California,Bakersfield,35.37329000,-119.01871000
United States,California,Baldwin Park,34.08529000,-117.96090000
United States,California,Banning,33.92557000,-116.87641000
United States,California,Barstow,34.89859000,-117.02282000
United States,California,Barstow Heights,34.86971000,-117.05615000
United States,California,Bay Point,38.02909000,-121.96163000
United States,California,Bayside,40.84235000,-124.06367000
United States,California,Bayview,40.77263000,-124.18395000
United States,California,Beale Air Force Base,39.10917000,-121.35444000
United States,California,Bear Valley Springs,35.15913000,-118.62842000
United States,California,Beaumont,33.92946000,-116.97725000
United States,California,Bell,33.97751000,-118.18702000
United States,California,Bell Gardens,33.96529000,-118.15146000
United States,California,Bella Vista,40.64071000,-122.23250000
United States,California,Bellflower,33.88168000,-118.11701000
United States,California,Belmont,37.52021000,-122.27580000
United States,California,Belvedere,37.87270000,-122.46442000
United States,California,Ben Lomond,37.08911000,-122.08635000
United States,California,Benicia,38.04937000,-122.15858000
United States,California,Berkeley,37.87159000,-122.27275000
United States,California,Bermuda Dunes,33.74280000,-116.28918000
United States,California,Berry Creek,39.64516000,-121.40330000
United States,California,Bertsch-Oceanview,41.75250000,-124.15875000
United States,California,Bethel Island,38.01492000,-121.64051000
United States,California,Beverly Hills,34.07362000,-118.40036000
United States,California,Big Bear City,34.26112000,-116.84503000
United States,California,Big Bear Lake,34.24390000,-116.91142000
United States,California,Big Pine,37.16493000,-118.28955000
United States,California,Big River,34.14002000,-114.36134000
United States,California,Biggs,39.41239000,-121.71275000
United States,California,Biola,36.80217000,-120.01627000
United States,California,Bishop,37.36354000,-118.39511000
United States,California,Black Point-Green Point,38.11547000,-122.51318000
United States,California,Blackhawk,37.82076000,-121.90774000
United States,California,Bloomington,34.07029000,-117.39588000
United States,California,Blue Lake,40.88291000,-123.98395000
United States,California,Blythe,33.61030000,-114.59635000
United States,California,Bodega Bay,38.33325000,-123.04806000
United States,California,Bodfish,35.58801000,-118.49203000
United States,California,Bolinas,37.90937000,-122.68637000
United States,California,Bonadelle Ranchos-Madera Ranchos,36.98467000,-119.87463000
United States,California,Bonita,32.65783000,-117.03003000
United States,California,Bonny Doon,37.04162000,-122.15052000
United States,California,Bonsall,33.28892000,-117.22559000
United States,California,Boonville,39.00907000,-123.36612000
United States,California,Boron,34.99942000,-117.64978000
United States,California,Boronda,36.69885000,-121.67495000
United States,California,Borrego Springs,33.25587000,-116.37501000
United States,California,Bostonia,32.80755000,-116.93642000
United States,California,Boulder Creek,37.12606000,-122.12219000
United States,California,Boyes Hot Springs,38.31380000,-122.48193000
United States,California,Boyle Heights,34.03390000,-118.20535000
United States,California,Bradbury,34.14695000,-117.97090000
United States,California,Brawley,32.97866000,-115.53027000
United States,California,Brea,33.91668000,-117.90006000
United States,California,Brentwood,37.93187000,-121.69579000
United States,California,Bret Harte,37.60207000,-121.00519000
United States,California,Bridgeport,38.25575000,-119.23127000
United States,California,Brisbane,37.68077000,-122.39997000
United States,California,Broadmoor,37.68660000,-122.48275000
United States,California,Brookdale,37.10634000,-122.10608000
United States,California,Brooktrails,39.44377000,-123.38529000
United States,California,Buckhorn,38.45216000,-120.52854000
United States,California,Buellton,34.61360000,-120.19265000
United States,California,Buena Park,33.86751000,-117.99812000
United States,California,Buena Vista,37.32133000,-121.91662000
United States,California,Burbank,34.18084000,-118.30897000
United States,California,Burlingame,37.58410000,-122.36608000
United States,California,Burney,40.88238000,-121.66082000
United States,California,Butte County,39.66693000,-121.60067000
United States,California,Buttonwillow,35.40052000,-119.46956000
United States,California,Byron,37.86715000,-121.63801000
United States,California,Bystrom,37.62076000,-120.98577000
United States,California,Cabazon,33.91752000,-116.78724000
United States,California,Calabasas,34.15778000,-118.63842000
United States,California,Calaveras County,38.20461000,-120.55413000
United States,California,Calexico,32.67895000,-115.49888000
United States,California,California City,35.12580000,-117.98590000
United States,California,Calimesa,34.00390000,-117.06198000
United States,California,Calipatria,33.12560000,-115.51415000
United States,California,Calistoga,38.57880000,-122.57971000
United States,California,Callender,35.05303000,-120.59628000
United States,California,Camarillo,34.21639000,-119.03760000
United States,California,Cambria,35.56414000,-121.08075000
United States,California,Cambrian Park,37.25689000,-121.93079000
United States,California,Cameron Park,38.66879000,-120.98716000
United States,California,Camino,38.73824000,-120.67493000
United States,California,Camp Meeker,38.42519000,-122.95944000
United States,California,Camp Pendleton North,33.31465000,-117.31603000
United States,California,Camp Pendleton South,33.22844000,-117.37929000
United States,California,Campbell,37.28717000,-121.94996000
United States,California,Campo,32.60645000,-116.46891000
United States,California,Canoga Park,34.20112000,-118.59814000
United States,California,Canyon Lake,33.68502000,-117.27309000
United States,California,Capitola,36.97523000,-121.95329000
United States,California,Carlsbad,33.15809000,-117.35059000
United States,California,Carmel Valley Village,36.50605000,-121.76594000
United States,California,Carmel-by-the-Sea,36.55524000,-121.92329000
United States,California,Carmichael,38.61713000,-121.32828000
United States,California,Carpinteria,34.39888000,-119.51846000
United States,California,Carson,33.83141000,-118.28202000
United States,California,Caruthers,36.54273000,-119.83320000
United States,California,Casa Conejo,34.18362000,-118.94343000
United States,California,Casa de Oro-Mount Helix,32.76397000,-116.96877000
United States,California,Castaic,34.48888000,-118.62287000
United States,California,Castro Valley,37.69410000,-122.08635000
United States,California,Castroville,36.76579000,-121.75800000
United States,California,Cathedral City,33.77974000,-116.46529000
United States,California,Cayucos,35.44275000,-120.89213000
United States,California,Cedar Ridge,38.06576000,-120.27686000
United States,California,Central Valley (historical),40.68043000,-122.37112000
United States,California,Century City,34.05557000,-118.41786000
United States,California,Ceres,37.59493000,-120.95771000
United States,California,Cerritos,33.85835000,-118.06479000
United States,California,Challenge-Brownsville,39.46447000,-121.26338000
United States,California,Channel Islands Beach,34.15806000,-119.22316000
United States,California,Charter Oak,34.10306000,-117.84589000
United States,California,Chatsworth,34.25723000,-118.60120000
United States,California,Cherry Valley,33.97252000,-116.97725000
United States,California,Cherryland,37.67938000,-122.10330000
United States,California,Chester,40.30627000,-121.23191000
United States,California,Chico,39.72849000,-121.83748000
United States,California,China Lake Acres,35.64051000,-117.76395000
United States,California,Chinatown,37.79660000,-122.40858000
United States,California,Chino,34.01223000,-117.68894000
United States,California,Chino Hills,33.99380000,-117.75888000
United States,California,Chowchilla,37.12300000,-120.26018000
United States,California,Chualar,36.57052000,-121.51855000
United States,California,Chula Vista,32.64005000,-117.08420000
United States,California,Citrus,34.11501000,-117.89173000
United States,California,Citrus Heights,38.70712000,-121.28106000
United States,California,City and County of San Francisco,37.77823000,-122.44250000
United States,California,City of Industry,34.01583333,-117.95083333
United States,California,Claremont,34.09668000,-117.71978000
United States,California,Clay,38.33602000,-121.15939000
United States,California,Clayton,37.94103000,-121.93579000
United States,California,Clear Lake Riviera,38.95406000,-122.72082000
United States,California,Clearlake,38.95823000,-122.62637000
United States,California,Clearlake Oaks,39.02628000,-122.67193000
United States,California,Cloverdale,38.80546000,-123.01722000
United States,California,Clovis,36.82523000,-119.70292000
United States,California,Coachella,33.68030000,-116.17389000
United States,California,Coalinga,36.13968000,-120.36015000
United States,California,Coarsegold,37.26217000,-119.70098000
United States,California,Cobb,38.82213000,-122.72305000
United States,California,Colfax,39.10073000,-120.95328000
United States,California,Collierville,38.21464000,-121.26884000
United States,California,Colma,37.67688000,-122.45969000
United States,California,Colton,34.07390000,-117.31365000
United States,California,Columbia,38.03631000,-120.40131000
United States,California,Colusa,39.21433000,-122.00942000
United States,California,Colusa County,39.17757000,-122.23703000
United States,California,Commerce,34.00057000,-118.15979000
United States,California,Compton,33.89585000,-118.22007000
United States,California,Concord,37.97798000,-122.03107000
United States,California,Contra Costa Centre,37.92752000,-122.05786000
United States,California,Contra Costa County,37.92342000,-121.95121000
United States,California,Cool,38.88722000,-121.01472000
United States,California,Copperopolis,37.98104000,-120.64187000
United States,California,Corcoran,36.09801000,-119.56040000
United States,California,Corning,39.92766000,-122.17916000
United States,California,Corona,33.87529000,-117.56644000
United States,California,Coronado,32.68589000,-117.18309000
United States,California,Corralitos,36.98856000,-121.80634000
United States,California,Corte Madera,37.92548000,-122.52748000
United States,California,Costa Mesa,33.64113000,-117.91867000
United States,California,Cotati,38.32686000,-122.70721000
United States,California,Coto De Caza,33.60419000,-117.58699000
United States,California,Cottonwood,40.38571000,-122.28084000
United States,California,Country Club,37.96881000,-121.34078000
United States,California,Covelo,39.79327000,-123.24922000
United States,California,Covina,34.09001000,-117.89034000
United States,California,Crescent City,41.75595000,-124.20175000
United States,California,Crest,32.80727000,-116.86808000
United States,California,Crestline,34.24195000,-117.28560000
United States,California,Crockett,38.05242000,-122.21302000
United States,California,Cudahy,33.96057000,-118.18535000
United States,California,Culver City,34.02112000,-118.39647000
United States,California,Cupertino,37.32300000,-122.03218000
United States,California,Cutler,36.52328000,-119.28678000
United States,California,Cutten,40.76985000,-124.14284000
United States,California,Cypress,33.81696000,-118.03729000
United States,California,Daly City,37.70577000,-122.46192000
United States,California,Dana Point,33.46697000,-117.69811000
United States,California,Danville,37.82159000,-121.99996000
United States,California,Davis,38.54491000,-121.74052000
United States,California,Day Valley,37.03578000,-121.86246000
United States,California,Deer Park,38.68185000,-120.82327000
United States,California,Del Aire,33.91613000,-118.36952000
United States,California,Del Mar,32.95949000,-117.26531000
United States,California,Del Monte Forest,36.58635000,-121.94746000
United States,California,Del Norte County,41.74496000,-123.95781000
United States,California,Del Rey,36.65912000,-119.59374000
United States,California,Del Rey Oaks,36.59329000,-121.83495000
United States,California,Del Rio,37.74354000,-121.01188000
United States,California,Delano,35.76884000,-119.24705000
United States,California,Delhi,37.43216000,-120.77854000
United States,California,Denair,37.52632000,-120.79687000
United States,California,Descanso,32.85283000,-116.61585000
United States,California,Desert Edge,33.92417000,-116.44139000
United States,California,Desert Hot Springs,33.96173000,-116.50353000
United States,California,Desert Shores,33.40420000,-116.03972000
United States,California,Desert View Highlands,34.59082000,-118.15257000
United States,California,Diablo,37.83493000,-121.95801000
United States,California,Diamond Bar,34.02862000,-117.81034000
United States,California,Diamond Springs,38.69463000,-120.81494000
United States,California,Dinuba,36.54328000,-119.38707000
United States,California,Discovery Bay,37.90854000,-121.60023000
United States,California,Dixon,38.44546000,-121.82330000
United States,California,Dixon Lane-Meadow Creek,37.38639000,-118.41527000
United States,California,Dogtown,38.21381000,-121.08855000
United States,California,Dollar Point,39.18796000,-120.09991000
United States,California,Dos Palos,36.98606000,-120.62657000
United States,California,Downey,33.94001000,-118.13257000
United States,California,Downieville,39.55934000,-120.82689000
United States,California,Duarte,34.13945000,-117.97729000
United States,California,Dublin,37.70215000,-121.93579000
United States,California,Dunnigan,38.88518000,-121.96969000
United States,California,Dunsmuir,41.20821000,-122.27195000
United States,California,Durham,39.64627000,-121.79998000
United States,California,Earlimart,35.88412000,-119.27233000
United States,California,East Foothills,37.38105000,-121.81745000
United States,California,East Hemet,33.74002000,-116.93891000
United States,California,East La Mirada,33.92446000,-117.98895000
United States,California,East Los Angeles,34.02390000,-118.17202000
United States,California,East Oakdale,37.78798000,-120.80382000
United States,California,East Palo Alto,37.46883000,-122.14108000
United States,California,East Pasadena,34.13814000,-118.07384000
United States,California,East Porterville,36.05745000,-118.97566000
United States,California,East Quincy,39.93406000,-120.89801000
United States,California,East Rancho Dominguez,33.89807000,-118.19535000
United States,California,East Richmond Heights,37.94492000,-122.31358000
United States,California,East San Gabriel,34.09168000,-118.09118000
United States,California,East Sonora,37.97770000,-120.36130000
United States,California,Easton,36.65023000,-119.79070000
United States,California,Eastvale,33.96358000,-117.56418000
United States,California,Echo Park,34.07808000,-118.26066000
United States,California,Edwards Air Force Base,34.91637000,-117.93535000
United States,California,El Cajon,32.79477000,-116.96253000
United States,California,El Centro,32.79200000,-115.56305000
United States,California,El Cerrito,37.91576000,-122.31164000
United States,California,El Cerrito Corona,33.84057000,-117.52283000
United States,California,El Dorado County,38.77874000,-120.52465000
United States,California,El Dorado Hills,38.68574000,-121.08217000
United States,California,El Granada,37.50272000,-122.46942000
United States,California,El Monte,34.06862000,-118.02757000
United States,California,El Rio,34.23578000,-119.16383000
United States,California,El Segundo,33.91918000,-118.41647000
United States,California,El Sobrante,37.97715000,-122.29525000
United States,California,El Verano,38.29769000,-122.49165000
United States,California,Eldridge,38.34880000,-122.51081000
United States,California,Elk Grove,38.40880000,-121.37162000
United States,California,Elkhorn,36.82440000,-121.74050000
United States,California,Elverta,38.71379000,-121.46273000
United States,California,Emerald Lake Hills,37.46466000,-122.26802000
United States,California,Emeryville,37.83132000,-122.28525000
United States,California,Empire,37.63826000,-120.90215000
United States,California,Encinitas,33.03699000,-117.29198000
United States,California,Encino,34.15917000,-118.50119000
United States,California,Escalon,37.79781000,-120.99792000
United States,California,Escondido,33.11921000,-117.08642000
United States,California,Esparto,38.69213000,-122.01719000
United States,California,Eucalyptus Hills,32.87977000,-116.94669000
United States,California,Eureka,40.80207000,-124.16367000
United States,California,Exeter,36.29606000,-119.14205000
United States,California,Fair Oaks,38.64463000,-121.27217000
United States,California,Fairbanks Ranch,32.99393000,-117.18726000
United States,California,Fairfax,37.98715000,-122.58887000
United States,California,Fairfield,38.24936000,-122.03997000
United States,California,Fairmead,37.07633000,-120.19295000
United States,California,Fairview,37.67854000,-122.04580000
United States,California,Fallbrook,33.37642000,-117.25115000
United States,California,Farmersville,36.29773000,-119.20678000
United States,California,Felton,37.05134000,-122.07330000
United States,California,Ferndale,40.57624000,-124.26394000
United States,California,Fetters Hot Springs-Agua Caliente,38.32140000,-122.48682000
United States,California,Fillmore,34.39916000,-118.91815000
United States,California,Firebaugh,36.85884000,-120.45601000
United States,California,Florence-Graham,33.96772000,-118.24438000
United States,California,Florin,38.49602000,-121.40884000
United States,California,Folsom,38.67796000,-121.17606000
United States,California,Fontana,34.09223000,-117.43505000
United States,California,Foothill Farms,38.67877000,-121.35114000
United States,California,Foothill Ranch,33.68641000,-117.66088000
United States,California,Ford City,35.15441000,-119.45623000
United States,California,Forest Meadows,38.16851000,-120.40659000
United States,California,Forest Ranch,39.88211000,-121.67275000
United States,California,Foresthill,39.02018000,-120.81799000
United States,California,Forestville,38.47352000,-122.89027000
United States,California,Fort Bragg,39.44572000,-123.80529000
United States,California,Fort Irwin,35.26275000,-116.68475000
United States,California,Fortuna,40.59819000,-124.15728000
United States,California,Foster City,37.55855000,-122.27108000
United States,California,Fountain Valley,33.70918000,-117.95367000
United States,California,Fowler,36.63051000,-119.67847000
United States,California,Frazier Park,34.82276000,-118.94482000
United States,California,Freedom,36.93523000,-121.77301000
United States,California,Fremont,37.54827000,-121.98857000
United States,California,French Camp,37.88409000,-121.27106000
United States,California,Fresno,36.74773000,-119.77237000
United States,California,Fresno County,36.75818000,-119.64932000
United States,California,Fruitridge Pocket,38.53265000,-121.45581000
United States,California,Fullerton,33.87029000,-117.92534000
United States,California,Galt,38.25464000,-121.29995000
United States,California,Garden Acres,37.96381000,-121.22939000
United States,California,Garden Grove,33.77391000,-117.94145000
United States,California,Gardena,33.88835000,-118.30896000
United States,California,Garnet,33.90196000,-116.54557000
United States,California,Georgetown,38.90684000,-120.83855000
United States,California,Gerber,40.05627000,-122.15027000
United States,California,Gilroy,37.00578000,-121.56828000
United States,California,Glen Avon,34.01168000,-117.48477000
United States,California,Glendale,34.14251000,-118.25508000
United States,California,Glendora,34.13612000,-117.86534000
United States,California,Glenn County,39.59840000,-122.39221000
United States,California,Gold River,38.62629000,-121.24662000
United States,California,Golden Hills,35.14247000,-118.49036000
United States,California,Goleta,34.43583000,-119.82764000
United States,California,Gonzales,36.50663000,-121.44438000
United States,California,Good Hope,33.76474000,-117.26698000
United States,California,Goshen,36.35106000,-119.42012000
United States,California,Grand Terrace,34.03390000,-117.31365000
United States,California,Granite Bay,38.76323000,-121.16384000
United States,California,Granite Hills,32.80311000,-116.90475000
United States,California,Grass Valley,39.21906000,-121.06106000
United States,California,Graton,38.43630000,-122.86972000
United States,California,Green Acres,33.73808000,-117.07642000
United States,California,Green Valley,38.25297000,-122.16219000
United States,California,Greenacres,35.38329000,-119.10983000
United States,California,Greenfield,36.32080000,-121.24381000
United States,California,Greenville,40.13961000,-120.95107000
United States,California,Gridley,39.36378000,-121.69358000
United States,California,Grover Beach,35.12164000,-120.62128000
United States,California,Guadalupe,34.97164000,-120.57184000
United States,California,Guerneville,38.50186000,-122.99611000
United States,California,Gustine,37.25772000,-120.99882000
United States,California,Hacienda Heights,33.99307000,-117.96868000
United States,California,Half Moon Bay,37.46355000,-122.42859000
United States,California,Hamilton City,39.74266000,-122.01359000
United States,California,Hanford,36.32745000,-119.64568000
United States,California,Happy Camp,41.79275000,-123.38080000
United States,California,Harbison Canyon,32.82033000,-116.83002000
United States,California,Hartley,38.41713000,-121.94691000
United States,California,Hawaiian Gardens,33.83140000,-118.07284000
United States,California,Hawthorne,33.91640000,-118.35257000
United States,California,Hayfork,40.55431000,-123.18308000
United States,California,Hayward,37.66882000,-122.08080000
United States,California,Healdsburg,38.61047000,-122.86916000
United States,California,Heber,32.73089000,-115.52972000
United States,California,Hemet,33.74761000,-116.97307000
United States,California,Herald,38.29575000,-121.24439000
United States,California,Hercules,38.01714000,-122.28858000
United States,California,Hermosa Beach,33.86224000,-118.39952000
United States,California,Hesperia,34.42639000,-117.30088000
United States,California,Hidden Hills,34.16028000,-118.65231000
United States,California,Hidden Meadows,33.22531000,-117.11253000
United States,California,Hidden Valley Lake,38.80796000,-122.55832000
United States,California,Highgrove,34.01585000,-117.33338000
United States,California,Highland,34.12834000,-117.20865000
United States,California,Highlands-Baywood Park,37.52272000,-122.34506000
United States,California,Hillsborough,37.57410000,-122.37942000
United States,California,Hilmar-Irwin,37.40454000,-120.85042000
United States,California,Hollister,36.85245000,-121.40160000
United States,California,Hollywood,34.09834000,-118.32674000
United States,California,Holtville,32.81116000,-115.38026000
United States,California,Home Garden,36.30328000,-119.63624000
United States,California,Home Gardens,33.87807000,-117.52088000
United States,California,Homeland,33.74308000,-117.10920000
United States,California,Hughson,37.59688000,-120.86604000
United States,California,Humboldt County,40.70501000,-123.91582000
United States,California,Humboldt Hill,40.72596000,-124.18978000
United States,California,Huntington Beach,33.66030000,-117.99923000
United States,California,Huntington Park,33.98168000,-118.22507000
United States,California,Huron,36.20273000,-120.10292000
United States,California,Hydesville,40.54763000,-124.09727000
United States,California,Idyllwild,33.74002000,-116.71891000
United States,California,Idyllwild-Pine Cove,33.74429000,-116.72587000
United States,California,Imperial,32.84755000,-115.56944000
United States,California,Imperial Beach,32.58394000,-117.11308000
United States,California,Imperial County,33.03951000,-115.36532000
United States,California,Indian Wells,33.71791000,-116.34311000
United States,California,Indio,33.72070000,-116.21677000
United States,California,Inglewood,33.96168000,-118.35313000
United States,California,Interlaken,36.95134000,-121.73384000
United States,California,Inverness,38.10103000,-122.85694000
United States,California,Inyo County,36.51113000,-117.41079000
United States,California,Inyokern,35.64690000,-117.81257000
United States,California,Ione,38.35269000,-120.93272000
United States,California,Irvine,33.66946000,-117.82311000
United States,California,Irwindale,34.10695000,-117.93534000
United States,California,Isla Vista,34.41333000,-119.86097000
United States,California,Ivanhoe,36.38717000,-119.21789000
United States,California,Jackson,38.34880000,-120.77410000
United States,California,Jamestown,37.95326000,-120.42270000
United States,California,Jamul,32.71700000,-116.87613000
United States,California,Janesville,40.29656000,-120.52411000
United States,California,Johnstonville,40.38434000,-120.58745000
United States,California,Joshua Tree,34.13473000,-116.31307000
United States,California,Julian,33.07866000,-116.60196000
United States,California,Jurupa Valley,33.99251000,-117.51644000
United States,California,Kelseyville,38.97795000,-122.83944000
United States,California,Kennedy,37.92992000,-121.25272000
United States,California,Kensington,37.91048000,-122.28025000
United States,California,Kentfield,37.95215000,-122.55720000
United States,California,Kenwood,38.41380000,-122.54609000
United States,California,Kerman,36.72356000,-120.05988000
United States,California,Kern County,35.34285000,-118.72990000
United States,California,Kernville,35.75467000,-118.42536000
United States,California,Kettleman City,36.00829000,-119.96180000
United States,California,Keyes,37.55660000,-120.91549000
United States,California,King City,36.21274000,-121.12603000
United States,California,Kings Beach,39.23768000,-120.02658000
United States,California,Kings County,36.07536000,-119.81550000
United States,California,Kingsburg,36.51384000,-119.55402000
United States,California,Knightsen,37.96881000,-121.66801000
United States,California,Koreatown,34.05779000,-118.30091000
United States,California,La Caada Flintridge,34.19917000,-118.18785000
United States,California,La Crescenta-Montrose,34.23216000,-118.23529000
United States,California,La Habra,33.93196000,-117.94617000
United States,California,La Habra Heights,33.96085000,-117.95062000
United States,California,La Jolla,32.84727000,-117.27420000
United States,California,La Mesa,32.76783000,-117.02308000
United States,California,La Mirada,33.91724000,-118.01201000
United States,California,La Palma,33.84640000,-118.04673000
United States,California,La Presa,32.70811000,-116.99725000
United States,California,La Puente,34.02001000,-117.94951000
United States,California,La Quinta,33.66336000,-116.31001000
United States,California,La Riviera,38.56685000,-121.35690000
United States,California,La Selva Beach,36.93662000,-121.86468000
United States,California,La Verne,34.10084000,-117.76784000
United States,California,Ladera,37.39994000,-122.19830000
United States,California,Ladera Heights,33.99418000,-118.37535000
United States,California,Ladera Ranch,33.57086000,-117.63561000
United States,California,Lafayette,37.88576000,-122.11802000
United States,California,Laguna,38.42102000,-121.42384000
United States,California,Laguna Beach,33.54225000,-117.78311000
United States,California,Laguna Hills,33.61252000,-117.71283000
United States,California,Laguna Niguel,33.52253000,-117.70755000
United States,California,Laguna Woods,33.61030000,-117.72533000
United States,California,Lagunitas-Forest Knolls,38.01793000,-122.69124000
United States,California,Lake Arrowhead,34.24834000,-117.18921000
United States,California,Lake County,39.09965000,-122.75318000
United States,California,Lake Elsinore,33.66808000,-117.32726000
United States,California,Lake Forest,33.64697000,-117.68922000
United States,California,Lake Isabella,35.61801000,-118.47314000
United States,California,Lake Los Angeles,34.61249000,-117.82812000
United States,California,Lake Nacimiento,35.72830000,-120.87963000
United States,California,Lake of the Pines,39.03962000,-121.05661000
United States,California,Lake San Marcos,33.12615000,-117.20837000
United States,California,Lake Wildwood,39.23295000,-121.20051000
United States,California,Lakeland Village,33.63863000,-117.34393000
United States,California,Lakeport,39.04295000,-122.91583000
United States,California,Lakeside,32.85727000,-116.92225000
United States,California,Lakeview,33.83863000,-117.11809000
United States,California,Lakewood,33.85363000,-118.13396000
United States,California,Lamont,35.25968000,-118.91427000
United States,California,Lancaster,34.69804000,-118.13674000
United States,California,Larkfield-Wikiup,38.51342000,-122.75094000
United States,California,Larkspur,37.93409000,-122.53525000
United States,California,Las Flores,33.58808000,-117.62672000
United States,California,Las Lomas,36.86523000,-121.73495000
United States,California,Lassen County,40.67359000,-120.59433000
United States,California,Lathrop,37.82270000,-121.27661000
United States,California,Laton,36.43328000,-119.68680000
United States,California,Lawndale,33.88724000,-118.35257000
United States,California,Laytonville,39.68821000,-123.48279000
United States,California,Le Grand,37.22855000,-120.24823000
United States,California,Lebec,34.84164000,-118.86482000
United States,California,Lemon Grove,32.74255000,-117.03142000
United States,California,Lemoore,36.30078000,-119.78291000
United States,California,Lemoore Station,36.26326000,-119.90476000
United States,California,Lennox,33.93807000,-118.35258000
United States,California,Lenwood,34.87665000,-117.10393000
United States,California,Leona Valley,34.61832000,-118.28813000
United States,California,Lewiston,40.70737000,-122.80752000
United States,California,Lexington Hills,37.16467000,-121.97301000
United States,California,Lincoln,38.89156000,-121.29301000
United States,California,Lincoln Village,38.00520000,-121.32828000
United States,California,Linda,39.12767000,-121.55080000
United States,California,Linden,38.02131000,-121.08383000
United States,California,Lindsay,36.20301000,-119.08816000
United States,California,Littlerock,34.52110000,-117.98368000
United States,California,Live Oak,36.98356000,-121.98052000
United States,California,Livermore,37.68187000,-121.76801000
United States,California,Livingston,37.38688000,-120.72353000
United States,California,Lockeford,38.16353000,-121.14994000
United States,California,Lodi,38.13020000,-121.27245000
United States,California,Loma Linda,34.04835000,-117.26115000
United States,California,Loma Rica,39.31183000,-121.41774000
United States,California,Lomita,33.79224000,-118.31507000
United States,California,Lompico,37.10550000,-122.05274000
United States,California,Lompoc,34.63915000,-120.45794000
United States,California,London,36.47606000,-119.44318000
United States,California,Lone Pine,36.60626000,-118.06462000
United States,California,Long Beach,33.76696000,-118.18923000
United States,California,Loomis,38.82129000,-121.19300000
United States,California,Los Alamitos,33.80307000,-118.07256000
United States,California,Los Alamos,34.74443000,-120.27821000
United States,California,Los Altos,37.38522000,-122.11413000
United States,California,Los Altos Hills,37.37966000,-122.13746000
United States,California,Los Angeles,34.05223000,-118.24368000
United States,California,Los Angeles County,34.19801000,-118.26102000
United States,California,Los Banos,37.05828000,-120.84992000
United States,California,Los Gatos,37.22661000,-121.97468000
United States,California,Los Molinos,40.02127000,-122.10027000
United States,California,Los Olivos,34.66776000,-120.11487000
United States,California,Los Osos,35.31109000,-120.83240000
United States,California,Los Serranos,33.97279000,-117.70811000
United States,California,Lost Hills,35.61635000,-119.69429000
United States,California,Lower Lake,38.91045000,-122.61026000
United States,California,Loyola,37.35133000,-122.10052000
United States,California,Lucas Valley-Marinwood,38.04011000,-122.57550000
United States,California,Lucerne,36.38078000,-119.66430000
United States,California,Lucerne Valley,34.44389000,-116.96781000
United States,California,Lynwood,33.93029000,-118.21146000
United States,California,Madera,36.96134000,-120.06072000
United States,California,Madera Acres,37.01911000,-120.06683000
United States,California,Madera County,37.21804000,-119.76265000
United States,California,Magalia,39.81211000,-121.57831000
United States,California,Malibu,34.02577000,-118.78040000
United States,California,Mammoth Lakes,37.64855000,-118.97208000
United States,California,Manhattan Beach,33.88474000,-118.41091000
United States,California,Manteca,37.79743000,-121.21605000
United States,California,March Air Force Base,33.89209000,-117.26310000
United States,California,Maricopa,35.05886000,-119.40095000
United States,California,Marin City,37.86854000,-122.50914000
United States,California,Marin County,38.05518000,-122.74886000
United States,California,Marina,36.68440000,-121.80217000
United States,California,Marina del Rey,33.98029000,-118.45174000
United States,California,Mariposa,37.48494000,-119.96628000
United States,California,Mariposa County,37.58152000,-119.90552000
United States,California,Martinez,38.01937000,-122.13413000
United States,California,Marysville,39.14573000,-121.59135000
United States,California,Matheny,36.17066000,-119.35158000
United States,California,Maxwell,39.27628000,-122.19137000
United States,California,Mayflower Village,34.11501000,-118.00979000
United States,California,Maywood,33.98668000,-118.18535000
United States,California,McCloud,41.25571000,-122.13945000
United States,California,McFarland,35.67801000,-119.22927000
United States,California,McKinleyville,40.94652000,-124.10062000
United States,California,Mead Valley,33.83335000,-117.29615000
United States,California,Meadow Vista,39.00101000,-121.02189000
United States,California,Meadowbrook,33.72578000,-117.28509000
United States,California,Mecca,33.57219000,-116.07820000
United States,California,Meiners Oaks,34.44694000,-119.27928000
United States,California,Mendocino County,39.43362000,-123.43155000
United States,California,Mendota,36.75356000,-120.38156000
United States,California,Menifee,33.72835000,-117.14642000
United States,California,Menlo Park,37.45383000,-122.18219000
United States,California,Mentone,34.07001000,-117.13448000
United States,California,Merced,37.30216000,-120.48297000
United States,California,Merced County,37.19186000,-120.71767000
United States,California,Mesa Verde,33.60586000,-114.73107000
United States,California,Middletown,38.75240000,-122.61499000
United States,California,Midpines,37.54438000,-119.92045000
United States,California,Midway City,33.74474000,-117.98923000
United States,California,Mill Valley,37.90604000,-122.54498000
United States,California,Millbrae,37.59855000,-122.38719000
United States,California,Milpitas,37.42827000,-121.90662000
United States,California,Minkler,36.72384000,-119.45818000
United States,California,Mira Mesa,32.91560000,-117.14392000
United States,California,Mira Monte,34.43361000,-119.28511000
United States,California,Mission Canyon,34.45083000,-119.71291000
United States,California,Mission District,37.75993000,-122.41914000
United States,California,Mission Hills,34.68609000,-120.43683000
United States,California,Mission Viejo,33.60002000,-117.67200000
United States,California,Modesto,37.63910000,-120.99688000
United States,California,Modoc County,41.58985000,-120.72497000
United States,California,Mojave,35.05247000,-118.17396000
United States,California,Mono County,37.93899000,-118.88671000
United States,California,Mono Vista,37.99770000,-120.26991000
United States,California,Monrovia,34.14806000,-117.99895000
United States,California,Montague,41.72820000,-122.52780000
United States,California,Montalvin,37.99548000,-122.33275000
United States,California,Montara,37.54216000,-122.51609000
United States,California,Montclair,34.07751000,-117.68978000
United States,California,Monte Rio,38.46547000,-123.00889000
United States,California,Monte Sereno,37.23633000,-121.99246000
United States,California,Montebello,34.00946000,-118.10535000
United States,California,Montecito,34.43666000,-119.63208000
United States,California,Monterey,36.60024000,-121.89468000
United States,California,Monterey County,36.23977000,-121.30890000
United States,California,Monterey Park,34.06251000,-118.12285000
United States,California,Monument Hills,38.66429000,-121.87566000
United States,California,Moorpark,34.28556000,-118.88204000
United States,California,Morada,38.03853000,-121.24578000
United States,California,Moraga,37.83493000,-122.12969000
United States,California,Moreno Valley,33.93752000,-117.23059000
United States,California,Morgan Hill,37.13050000,-121.65439000
United States,California,Morongo Valley,34.04695000,-116.58085000
United States,California,Morro Bay,35.36581000,-120.84990000
United States,California,Moss Beach,37.52744000,-122.51331000
United States,California,Mount Hermon,37.05106000,-122.05857000
United States,California,Mount Shasta,41.31024000,-122.31225000
United States,California,Mountain House,37.78326000,-121.54273000
United States,California,Mountain Ranch,38.22825000,-120.54076000
United States,California,Mountain View,37.38605000,-122.08385000
United States,California,Mountain View Acres,34.49666000,-117.34894000
United States,California,Murphys,38.13762000,-120.46105000
United States,California,Murrieta,33.55391000,-117.21392000
United States,California,Murrieta Hot Springs,33.56058000,-117.15809000
United States,California,Muscoy,34.15418000,-117.34421000
United States,California,Myrtletown,40.78874000,-124.13034000
United States,California,Napa,38.29714000,-122.28553000
United States,California,Napa County,38.50647000,-122.33053000
United States,California,National City,32.67811000,-117.09920000
United States,California,Needles,34.84806000,-114.61413000
United States,California,Nevada City,39.26173000,-121.01779000
United States,California,Nevada County,39.30137000,-120.76875000
United States,California,Newark,37.52966000,-122.04024000
United States,California,Newcastle,38.87407000,-121.13328000
United States,California,Newman,37.31383000,-121.02076000
United States,California,Newport Beach,33.61891000,-117.92895000
United States,California,Nice,39.12323000,-122.84833000
United States,California,Niland,33.24004000,-115.51888000
United States,California,Nipomo,35.04275000,-120.47600000
United States,California,Noe Valley,37.75018000,-122.43369000
